{"data":[{"area":1506,"street_address":"329 Lawn St ","baths":1.5,"price":1600,"latitude":40.434389,"beds":4.0,"type":0,"url":"https:\/\/www.zillow.com\/homedetails\/329-Lawn-St-Pittsburgh-PA-15213\/11413145_zpid\/","longitude":-79.962782},{"area":1508,"street_address":" Seminole Dr ","baths":2.0,"price":1900,"latitude":40.35912,"beds":3.0,"type":0,"url":"https:\/\/www.zillow.com\/homedetails\/Seminole-Dr-Pittsburgh-PA-15228\/2081558493_zpid\/","longitude":-80.05517},{"area":1500,"street_address":"1336 Beechview Ave ","baths":1.5,"price":1500,"latitude":40.414696,"beds":5.0,"type":0,"url":"https:\/\/www.zillow.com\/homedetails\/1336-Beechview-Ave-Pittsburgh-PA-15216\/11335808_zpid\/","longitude":-80.02523},{"area":1088,"street_address":"662 Filmore Rd ","baths":1.0,"price":1245,"latitude":40.431779,"beds":3.0,"type":0,"url":"https:\/\/www.zillow.com\/homedetails\/662-Filmore-Rd-Pittsburgh-PA-15221\/11419095_zpid\/","longitude":-79.849974},{"area":1405,"street_address":" Berlin Rd ","baths":2.0,"price":1499,"latitude":40.42328,"beds":4.0,"type":0,"url":"https:\/\/www.zillow.com\/homedetails\/Berlin-Rd-Pittsburgh-PA-15221\/2080104983_zpid\/","longitude":-79.86177},{"area":2264,"street_address":"1441 Browning Rd ","baths":2.5,"price":2300,"latitude":40.477333,"beds":3.0,"type":0,"url":"https:\/\/www.zillow.com\/homedetails\/1441-Browning-Rd-Pittsburgh-PA-15206\/11282583_zpid\/","longitude":-79.916034},{"area":null,"street_address":"526 Saint James Pl ","baths":1.0,"price":2100,"latitude":40.452589,"beds":3.0,"type":2,"url":"https:\/\/www.zillow.com\/homedetails\/526-Saint-James-Pl-Pittsburgh-PA-15232\/2107423766_zpid\/","longitude":-79.938343},{"area":1944,"street_address":"5657 Forbes Ave ","baths":2.0,"price":3500,"latitude":40.438293,"beds":5.0,"type":0,"url":"https:\/\/www.zillow.com\/homedetails\/5657-Forbes-Ave-Pittsburgh-PA-15217\/11631076_zpid\/","longitude":-79.925519},{"area":1514,"street_address":"808 Fordham Ave ","baths":2.0,"price":1350,"latitude":40.391448,"beds":3.0,"type":0,"url":"https:\/\/www.zillow.com\/homedetails\/808-Fordham-Ave-Pittsburgh-PA-15226\/11653311_zpid\/","longitude":-80.023673},{"area":2655,"street_address":"3031 Huxley St # A","baths":1.0,"price":1650,"latitude":40.452643,"beds":4.0,"type":2,"url":"https:\/\/www.zillow.com\/homedetails\/3031-Huxley-St-A-Pittsburgh-PA-15204\/2080116652_zpid\/","longitude":-80.061513},{"area":1840,"street_address":"1925 Jane St ","baths":1.5,"price":2150,"latitude":40.426982,"beds":3.0,"type":0,"url":"https:\/\/www.zillow.com\/homedetails\/1925-Jane-St-Pittsburgh-PA-15203\/11291346_zpid\/","longitude":-79.978257},{"area":1776,"street_address":"99 S 14th St ","baths":2.5,"price":1700,"latitude":40.426791,"beds":3.0,"type":0,"url":"https:\/\/www.zillow.com\/homedetails\/99-S-14th-St-Pittsburgh-PA-15203\/11474587_zpid\/","longitude":-79.983917},{"area":1286,"street_address":"64 S 17th St ","baths":1.0,"price":1600,"latitude":40.42989,"beds":4.0,"type":0,"url":"https:\/\/www.zillow.com\/homedetails\/64-S-17th-St-Pittsburgh-PA-15203\/11290535_zpid\/","longitude":-79.98216},{"area":1980,"street_address":"123 Bayard Pl ","baths":3.5,"price":3000,"latitude":40.450244,"beds":4.0,"type":0,"url":"https:\/\/www.zillow.com\/homedetails\/123-Bayard-Pl-Pittsburgh-PA-15213\/11529082_zpid\/","longitude":-79.946961},{"area":950,"street_address":"3123 Schieck St ","baths":1.5,"price":1100,"latitude":40.38714,"beds":3.0,"type":0,"url":"https:\/\/www.zillow.com\/homedetails\/3123-Schieck-St-Pittsburgh-PA-15227\/11642356_zpid\/","longitude":-79.965204},{"area":1400,"street_address":"24 Monastery St ","baths":2.0,"price":1250,"latitude":40.423193,"beds":3.0,"type":0,"url":"https:\/\/www.zillow.com\/homedetails\/24-Monastery-St-Pittsburgh-PA-15203\/11315245_zpid\/","longitude":-79.985192},{"area":1618,"street_address":"226 E Elmhurst Rd ","baths":2.5,"price":1650,"latitude":40.407012,"beds":3.0,"type":0,"url":"https:\/\/www.zillow.com\/homedetails\/226-E-Elmhurst-Rd-Pittsburgh-PA-15220\/11453083_zpid\/","longitude":-80.048683},{"area":1466,"street_address":"853 Ashdale St ","baths":1.0,"price":1250,"latitude":40.414496,"beds":3.0,"type":0,"url":"https:\/\/www.zillow.com\/homedetails\/853-Ashdale-St-Pittsburgh-PA-15210\/11316750_zpid\/","longitude":-79.999346},{"area":809,"street_address":"12 Saint Paul St ","baths":2.0,"price":1700,"latitude":40.421688,"beds":4.0,"type":0,"url":"https:\/\/www.zillow.com\/homedetails\/12-Saint-Paul-St-Pittsburgh-PA-15203\/11307317_zpid\/","longitude":-79.981666},{"area":1730,"street_address":"3927 Woolslayer Way ","baths":3.0,"price":2400,"latitude":40.464625,"beds":3.0,"type":2,"url":"https:\/\/www.zillow.com\/homedetails\/3927-Woolslayer-Way-Pittsburgh-PA-15224\/248642778_zpid\/","longitude":-79.958855},{"area":1400,"street_address":"4228 Saline St ","baths":1.5,"price":1600,"latitude":40.422126,"beds":3.0,"type":2,"url":"https:\/\/www.zillow.com\/homedetails\/4228-Saline-St-Pittsburgh-PA-15217\/11639450_zpid\/","longitude":-79.92647},{"area":1573,"street_address":"329 Fingal St ","baths":1.0,"price":1072,"latitude":40.438123,"beds":3.0,"type":0,"url":"https:\/\/www.zillow.com\/homedetails\/329-Fingal-St-Pittsburgh-PA-15211\/11585531_zpid\/","longitude":-80.027387},{"area":1604,"street_address":"2142 Sampson St ","baths":2.0,"price":1400,"latitude":40.459472,"beds":4.0,"type":0,"url":"https:\/\/www.zillow.com\/homedetails\/2142-Sampson-St-Pittsburgh-PA-15235\/11416268_zpid\/","longitude":-79.859836},{"area":2400,"street_address":"3013 Glen Mawr St ","baths":2.0,"price":1250,"latitude":40.456939,"beds":5.0,"type":0,"url":"https:\/\/www.zillow.com\/homedetails\/3013-Glen-Mawr-St-Pittsburgh-PA-15204\/11483344_zpid\/","longitude":-80.053232},{"area":1500,"street_address":" Plainview Ave ","baths":1.0,"price":1048,"latitude":40.40151,"beds":3.0,"type":0,"url":"https:\/\/www.zillow.com\/homedetails\/Plainview-Ave-Pittsburgh-PA-15226\/2080148281_zpid\/","longitude":-80.01984},{"area":1100,"street_address":"931 Woodbine St ","baths":1.0,"price":1200,"latitude":40.478562,"beds":3.0,"type":0,"url":"https:\/\/www.zillow.com\/homedetails\/931-Woodbine-St-Pittsburgh-PA-15201\/11615416_zpid\/","longitude":-79.942747},{"area":null,"street_address":"902 McArdle Roadway # 902","baths":2.0,"price":1475,"latitude":40.432271,"beds":3.0,"type":2,"url":"https:\/\/www.zillow.com\/homedetails\/902-Mcardle-Roadway-902-Pittsburgh-PA-15203\/2080157954_zpid\/","longitude":-80.006394},{"area":1782,"street_address":" Vine St ","baths":1.0,"price":1098,"latitude":40.43918,"beds":3.0,"type":0,"url":"https:\/\/www.zillow.com\/homedetails\/Vine-St-Pittsburgh-PA-15223\/2080158203_zpid\/","longitude":-79.98395},{"area":2203,"street_address":"5924 Elwood St ","baths":2.5,"price":2950,"latitude":40.454317,"beds":5.0,"type":0,"url":"https:\/\/www.zillow.com\/homedetails\/5924-Elwood-St-Pittsburgh-PA-15232\/11625503_zpid\/","longitude":-79.926492},{"area":1232,"street_address":"2303 Palm Beach Ave ","baths":1.0,"price":1050,"latitude":40.40258,"beds":3.0,"type":0,"url":"https:\/\/www.zillow.com\/homedetails\/2303-Palm-Beach-Ave-Pittsburgh-PA-15216\/11565172_zpid\/","longitude":-80.025882},{"area":1680,"street_address":"3629 Melwood Ave ","baths":1.0,"price":1700,"latitude":40.460085,"beds":3.0,"type":0,"url":"https:\/\/www.zillow.com\/homedetails\/3629-Melwood-Ave-Pittsburgh-PA-15213\/11402198_zpid\/","longitude":-79.959031},{"area":2374,"street_address":"176 Boxfield Rd ","baths":2.5,"price":3100,"latitude":40.348068,"beds":4.0,"type":0,"url":"https:\/\/www.zillow.com\/homedetails\/176-Boxfield-Rd-Pittsburgh-PA-15241\/11433670_zpid\/","longitude":-80.068124},{"area":988,"street_address":"791 Cooke Dr # A","baths":1.0,"price":1000,"latitude":40.368245,"beds":3.0,"type":2,"url":"https:\/\/www.zillow.com\/homedetails\/791-Cooke-Dr-A-Pittsburgh-PA-15234\/2083256138_zpid\/","longitude":-80.030765},{"area":2400,"street_address":"3213 Dawson St ","baths":3.0,"price":3300,"latitude":40.430637,"beds":7.0,"type":0,"url":"https:\/\/www.zillow.com\/homedetails\/3213-Dawson-St-Pittsburgh-PA-15213\/11420203_zpid\/","longitude":-79.954454},{"area":1557,"street_address":"2306 Eldridge St ","baths":2.5,"price":1850,"latitude":40.431422,"beds":4.0,"type":0,"url":"https:\/\/www.zillow.com\/homedetails\/2306-Eldridge-St-Pittsburgh-PA-15217\/11634858_zpid\/","longitude":-79.922614},{"area":2079,"street_address":" Northumberland St ","baths":2.0,"price":3500,"latitude":40.44142,"beds":5.0,"type":0,"url":"https:\/\/www.zillow.com\/homedetails\/Northumberland-St-Pittsburgh-PA-15217\/2080187895_zpid\/","longitude":-79.92337},{"area":1800,"street_address":"254 46th St ","baths":2.0,"price":2100,"latitude":40.471511,"beds":3.0,"type":2,"url":"https:\/\/www.zillow.com\/homedetails\/254-46th-St-Pittsburgh-PA-15201\/11513020_zpid\/","longitude":-79.957347},{"area":2148,"street_address":"1248 Tennessee Ave ","baths":2.0,"price":1625,"latitude":40.393093,"beds":4.0,"type":0,"url":"https:\/\/www.zillow.com\/homedetails\/1248-Tennessee-Ave-Pittsburgh-PA-15216\/11652540_zpid\/","longitude":-80.032281},{"area":2328,"street_address":"2966 Belrose Ave ","baths":2.5,"price":1600,"latitude":40.39602,"beds":5.0,"type":0,"url":"https:\/\/www.zillow.com\/homedetails\/2966-Belrose-Ave-Pittsburgh-PA-15216\/11571634_zpid\/","longitude":-80.037855},{"area":1066,"street_address":" Chesterfield Rd ","baths":1.0,"price":2200,"latitude":40.44102,"beds":3.0,"type":0,"url":"https:\/\/www.zillow.com\/homedetails\/Chesterfield-Rd-Pittsburgh-PA-15213\/2080182579_zpid\/","longitude":-79.96297},{"area":2200,"street_address":"257 Universal Rd ","baths":1.0,"price":850,"latitude":40.464068,"beds":3.0,"type":2,"url":"https:\/\/www.zillow.com\/homedetails\/257-Universal-Rd-Pittsburgh-PA-15235\/11492600_zpid\/","longitude":-79.818326},{"area":1980,"street_address":"123 Bayard Pl ","baths":3.5,"price":3000,"latitude":40.450244,"beds":4.0,"type":0,"url":"https:\/\/www.zillow.com\/homedetails\/123-Bayard-Pl-Pittsburgh-PA-15213\/11529082_zpid\/","longitude":-79.946961},{"area":1700,"street_address":"907 Western Ave # 1","baths":2.0,"price":1950,"latitude":40.451657,"beds":3.0,"type":1,"url":"https:\/\/www.zillow.com\/homedetails\/907-Western-Ave-1-Pittsburgh-PA-15233\/2080119496_zpid\/","longitude":-80.016707},{"area":950,"street_address":"3123 Schieck St ","baths":1.5,"price":1100,"latitude":40.38714,"beds":3.0,"type":0,"url":"https:\/\/www.zillow.com\/homedetails\/3123-Schieck-St-Pittsburgh-PA-15227\/11642356_zpid\/","longitude":-79.965204},{"area":1457,"street_address":"5520 Baum Blvd # 712","baths":2.0,"price":4881,"latitude":40.457613,"beds":3.0,"type":1,"url":"https:\/\/www.zillow.com\/homedetails\/5520-Baum-Blvd-712-Pittsburgh-PA-15232\/2080126076_zpid\/","longitude":-79.936281},{"area":1400,"street_address":"24 Monastery St ","baths":2.0,"price":1250,"latitude":40.423193,"beds":3.0,"type":0,"url":"https:\/\/www.zillow.com\/homedetails\/24-Monastery-St-Pittsburgh-PA-15203\/11315245_zpid\/","longitude":-79.985192},{"area":1618,"street_address":"226 E Elmhurst Rd ","baths":2.5,"price":1650,"latitude":40.407012,"beds":3.0,"type":0,"url":"https:\/\/www.zillow.com\/homedetails\/226-E-Elmhurst-Rd-Pittsburgh-PA-15220\/11453083_zpid\/","longitude":-80.048683},{"area":1466,"street_address":"853 Ashdale St ","baths":1.0,"price":1250,"latitude":40.414496,"beds":3.0,"type":0,"url":"https:\/\/www.zillow.com\/homedetails\/853-Ashdale-St-Pittsburgh-PA-15210\/11316750_zpid\/","longitude":-79.999346},{"area":1385,"street_address":"2235 Wightman St ","baths":2.0,"price":2350,"latitude":40.429988,"beds":3.0,"type":0,"url":"https:\/\/www.zillow.com\/homedetails\/2235-Wightman-St-Pittsburgh-PA-15217\/11635302_zpid\/","longitude":-79.927128},{"area":null,"street_address":"353 Oakland Ave Floor 2","baths":1.0,"price":1800,"latitude":40.439094,"beds":3.0,"type":1,"url":"https:\/\/www.zillow.com\/homedetails\/353-Oakland-Ave-FLOOR-2-Pittsburgh-PA-15213\/2080131327_zpid\/","longitude":-79.95362},{"area":1054,"street_address":"334 Nelbon Ave ","baths":1.0,"price":1000,"latitude":40.45792,"beds":3.0,"type":0,"url":"https:\/\/www.zillow.com\/homedetails\/334-Nelbon-Ave-Pittsburgh-PA-15235\/11452112_zpid\/","longitude":-79.845263},{"area":809,"street_address":"12 Saint Paul St ","baths":2.0,"price":1700,"latitude":40.421688,"beds":4.0,"type":0,"url":"https:\/\/www.zillow.com\/homedetails\/12-Saint-Paul-St-Pittsburgh-PA-15203\/11307317_zpid\/","longitude":-79.981666},{"area":1730,"street_address":"3927 Woolslayer Way ","baths":3.0,"price":2400,"latitude":40.464625,"beds":3.0,"type":2,"url":"https:\/\/www.zillow.com\/homedetails\/3927-Woolslayer-Way-Pittsburgh-PA-15224\/248642778_zpid\/","longitude":-79.958855},{"area":null,"street_address":" Broughton St ","baths":1.0,"price":1500,"latitude":40.45456,"beds":3.0,"type":1,"url":"https:\/\/www.zillow.com\/homedetails\/Broughton-St-Pittsburgh-PA-15213\/2080133738_zpid\/","longitude":-79.94662},{"area":null,"street_address":" Broughton St ","baths":1.5,"price":1470,"latitude":40.45456,"beds":3.0,"type":1,"url":"https:\/\/www.zillow.com\/homedetails\/Broughton-St-Pittsburgh-PA-15213\/2080892971_zpid\/","longitude":-79.94662},{"area":2340,"street_address":" Ophelia St ","baths":3.0,"price":2000,"latitude":40.43466,"beds":6.0,"type":0,"url":"https:\/\/www.zillow.com\/homedetails\/Ophelia-St-Pittsburgh-PA-15213\/2080133871_zpid\/","longitude":-79.96208},{"area":816,"street_address":"5211 1\/2 Lytle St ","baths":1.0,"price":995,"latitude":40.404855,"beds":4.0,"type":0,"url":"https:\/\/www.zillow.com\/homedetails\/5211-1-2-Lytle-St-Pittsburgh-PA-15207\/11550924_zpid\/","longitude":-79.944693},{"area":1459,"street_address":"327 Arabella St ","baths":1.0,"price":900,"latitude":40.412957,"beds":3.0,"type":0,"url":"https:\/\/www.zillow.com\/homedetails\/327-Arabella-St-Pittsburgh-PA-15210\/11435669_zpid\/","longitude":-79.99408},{"area":1400,"street_address":"4228 Saline St ","baths":1.5,"price":1600,"latitude":40.422126,"beds":3.0,"type":2,"url":"https:\/\/www.zillow.com\/homedetails\/4228-Saline-St-Pittsburgh-PA-15217\/11639450_zpid\/","longitude":-79.92647},{"area":1490,"street_address":"403 S Braddock Ave # JANSSEN08","baths":1.0,"price":1525,"latitude":40.444343,"beds":3.0,"type":1,"url":"https:\/\/www.zillow.com\/homedetails\/403-S-Braddock-Ave-JANSSEN08-Pittsburgh-PA-15221\/2080141505_zpid\/","longitude":-79.895905},{"area":1573,"street_address":"329 Fingal St ","baths":1.0,"price":1072,"latitude":40.438123,"beds":3.0,"type":0,"url":"https:\/\/www.zillow.com\/homedetails\/329-Fingal-St-Pittsburgh-PA-15211\/11585531_zpid\/","longitude":-80.027387},{"area":null,"street_address":"5542 Fair Oaks St Floor 2","baths":1.0,"price":1695,"latitude":40.445433,"beds":3.0,"type":1,"url":"https:\/\/www.zillow.com\/homedetails\/5542-Fair-Oaks-St-FLOOR-2-Pittsburgh-PA-15217\/2080142050_zpid\/","longitude":-79.928484},{"area":1604,"street_address":"2142 Sampson St ","baths":2.0,"price":1400,"latitude":40.459472,"beds":4.0,"type":0,"url":"https:\/\/www.zillow.com\/homedetails\/2142-Sampson-St-Pittsburgh-PA-15235\/11416268_zpid\/","longitude":-79.859836},{"area":1700,"street_address":"525 S Graham St # 2","baths":1.0,"price":1599,"latitude":40.455886,"beds":3.0,"type":1,"url":"https:\/\/www.zillow.com\/homedetails\/525-S-Graham-St-2-Pittsburgh-PA-15232\/2096849128_zpid\/","longitude":-79.935798},{"area":2400,"street_address":"3013 Glen Mawr St ","baths":2.0,"price":1250,"latitude":40.456939,"beds":5.0,"type":0,"url":"https:\/\/www.zillow.com\/homedetails\/3013-Glen-Mawr-St-Pittsburgh-PA-15204\/11483344_zpid\/","longitude":-80.053232},{"area":1700,"street_address":"516 Saint James Pl ","baths":1.5,"price":2250,"latitude":40.452843,"beds":3.0,"type":1,"url":"https:\/\/www.zillow.com\/homedetails\/516-Saint-James-Pl-Pittsburgh-PA-15232\/11525338_zpid\/","longitude":-79.938557},{"area":1882,"street_address":"4744 Friendship Ave ","baths":2.5,"price":2150,"latitude":40.46228,"beds":3.0,"type":0,"url":"https:\/\/www.zillow.com\/homedetails\/4744-Friendship-Ave-Pittsburgh-PA-15224\/11524162_zpid\/","longitude":-79.94728},{"area":1500,"street_address":" Plainview Ave ","baths":1.0,"price":1048,"latitude":40.40151,"beds":3.0,"type":0,"url":"https:\/\/www.zillow.com\/homedetails\/Plainview-Ave-Pittsburgh-PA-15226\/2080148281_zpid\/","longitude":-80.01984},{"area":1100,"street_address":"931 Woodbine St ","baths":1.0,"price":1200,"latitude":40.478562,"beds":3.0,"type":0,"url":"https:\/\/www.zillow.com\/homedetails\/931-Woodbine-St-Pittsburgh-PA-15201\/11615416_zpid\/","longitude":-79.942747},{"area":1743,"street_address":"291 W Elizabeth St ","baths":1.5,"price":1200,"latitude":40.406817,"beds":3.0,"type":0,"url":"https:\/\/www.zillow.com\/homedetails\/291-W-Elizabeth-St-Pittsburgh-PA-15207\/11550334_zpid\/","longitude":-79.946313},{"area":3550,"street_address":"514 McCully St ","baths":1.0,"price":1050,"latitude":40.385957,"beds":3.0,"type":1,"url":"https:\/\/www.zillow.com\/homedetails\/514-Mccully-St-Pittsburgh-PA-15216\/11659351_zpid\/","longitude":-80.053522},{"area":null,"street_address":"5109 Dresden Way ","baths":1.5,"price":1750,"latitude":40.478415,"beds":3.0,"type":0,"url":"https:\/\/www.zillow.com\/homedetails\/5109-Dresden-Way-Pittsburgh-PA-15201\/2091932996_zpid\/","longitude":-79.955111},{"area":null,"street_address":"6810 5th Ave Floor 2","baths":1.0,"price":1800,"latitude":40.45521,"beds":3.0,"type":1,"url":"https:\/\/www.zillow.com\/homedetails\/6810-5th-Ave-FLOOR-2-Pittsburgh-PA-15208\/2080151015_zpid\/","longitude":-79.910832},{"area":1700,"street_address":"98 N Sprague Ave ","baths":1.5,"price":1500,"latitude":40.499091,"beds":3.0,"type":1,"url":"https:\/\/www.zillow.com\/homedetails\/98-N-Sprague-Ave-Pittsburgh-PA-15202\/11325244_zpid\/","longitude":-80.056242},{"area":925,"street_address":"2359 Tilbury Ave ","baths":1.0,"price":1349,"latitude":40.429242,"beds":3.0,"type":1,"url":"https:\/\/www.zillow.com\/homedetails\/2359-Tilbury-Ave-Pittsburgh-PA-15217\/11635515_zpid\/","longitude":-79.917814},{"area":2400,"street_address":"2357 Tilbury Ave ","baths":1.0,"price":1599,"latitude":40.429336,"beds":3.0,"type":1,"url":"https:\/\/www.zillow.com\/homedetails\/2357-Tilbury-Ave-Pittsburgh-PA-15217\/11635514_zpid\/","longitude":-79.917773},{"area":1318,"street_address":"811 Lincoln Ave ","baths":1.5,"price":1600,"latitude":40.500684,"beds":3.0,"type":0,"url":"https:\/\/www.zillow.com\/homedetails\/811-Lincoln-Ave-Pittsburgh-PA-15215\/11332905_zpid\/","longitude":-79.93712},{"area":2504,"street_address":"112 Ulysses St Floor 1","baths":3.0,"price":1595,"latitude":40.434497,"beds":4.0,"type":1,"url":"https:\/\/www.zillow.com\/homedetails\/112-Ulysses-St-FLOOR-1-Pittsburgh-PA-15211\/2080157856_zpid\/","longitude":-80.012252},{"area":null,"street_address":"902 McArdle Roadway # 902","baths":2.0,"price":1475,"latitude":40.432271,"beds":3.0,"type":2,"url":"https:\/\/www.zillow.com\/homedetails\/902-Mcardle-Roadway-902-Pittsburgh-PA-15203\/2080157954_zpid\/","longitude":-80.006394},{"area":null,"street_address":" S 11th St ","baths":2.5,"price":1575,"latitude":40.42775,"beds":3.0,"type":1,"url":"https:\/\/www.zillow.com\/homedetails\/S-11th-St-Pittsburgh-PA-15203\/2080157982_zpid\/","longitude":-79.98753},{"area":1782,"street_address":" Vine St ","baths":1.0,"price":1098,"latitude":40.43918,"beds":3.0,"type":0,"url":"https:\/\/www.zillow.com\/homedetails\/Vine-St-Pittsburgh-PA-15223\/2080158203_zpid\/","longitude":-79.98395},{"area":2203,"street_address":"5924 Elwood St ","baths":2.5,"price":2950,"latitude":40.454317,"beds":5.0,"type":0,"url":"https:\/\/www.zillow.com\/homedetails\/5924-Elwood-St-Pittsburgh-PA-15232\/11625503_zpid\/","longitude":-79.926492},{"area":2000,"street_address":"103 W Hutchinson Ave # B","baths":2.0,"price":2250,"latitude":40.435283,"beds":4.0,"type":1,"url":"https:\/\/www.zillow.com\/homedetails\/103-W-Hutchinson-Ave-B-Pittsburgh-PA-15218\/2080158827_zpid\/","longitude":-79.885897},{"area":1481,"street_address":"2291 Valera Ave ","baths":1.0,"price":945,"latitude":40.388537,"beds":3.0,"type":0,"url":"https:\/\/www.zillow.com\/homedetails\/2291-Valera-Ave-Pittsburgh-PA-15210\/11647929_zpid\/","longitude":-79.98724},{"area":1232,"street_address":"2303 Palm Beach Ave ","baths":1.0,"price":1050,"latitude":40.40258,"beds":3.0,"type":0,"url":"https:\/\/www.zillow.com\/homedetails\/2303-Palm-Beach-Ave-Pittsburgh-PA-15216\/11565172_zpid\/","longitude":-80.025882},{"area":1763,"street_address":"211 S Evaline St # 2","baths":2.0,"price":2500,"latitude":40.463464,"beds":5.0,"type":1,"url":"https:\/\/www.zillow.com\/homedetails\/211-S-Evaline-St-2-Pittsburgh-PA-15224\/2083622520_zpid\/","longitude":-79.941168},{"area":1680,"street_address":"3629 Melwood Ave ","baths":1.0,"price":1700,"latitude":40.460085,"beds":3.0,"type":0,"url":"https:\/\/www.zillow.com\/homedetails\/3629-Melwood-Ave-Pittsburgh-PA-15213\/11402198_zpid\/","longitude":-79.959031},{"area":2374,"street_address":"176 Boxfield Rd ","baths":2.5,"price":3100,"latitude":40.348068,"beds":4.0,"type":0,"url":"https:\/\/www.zillow.com\/homedetails\/176-Boxfield-Rd-Pittsburgh-PA-15241\/11433670_zpid\/","longitude":-80.068124},{"area":1450,"street_address":"2211 Sarah St # 2","baths":2.0,"price":2250,"latitude":40.427724,"beds":3.0,"type":1,"url":"https:\/\/www.zillow.com\/homedetails\/2211-Sarah-St-2-Pittsburgh-PA-15203\/2091680754_zpid\/","longitude":-79.974195},{"area":1163,"street_address":"137 Wilson Dr ","baths":1.0,"price":900,"latitude":40.467817,"beds":3.0,"type":0,"url":"https:\/\/www.zillow.com\/homedetails\/137-Wilson-Dr-Pittsburgh-PA-15235\/11450947_zpid\/","longitude":-79.838299},{"area":988,"street_address":"791 Cooke Dr # A","baths":1.0,"price":1000,"latitude":40.368245,"beds":3.0,"type":2,"url":"https:\/\/www.zillow.com\/homedetails\/791-Cooke-Dr-A-Pittsburgh-PA-15234\/2083256138_zpid\/","longitude":-80.030765},{"area":1312,"street_address":"4218 Saline St ","baths":1.5,"price":1400,"latitude":40.422449,"beds":3.0,"type":2,"url":"https:\/\/www.zillow.com\/homedetails\/4218-Saline-St-Pittsburgh-PA-15217\/11639446_zpid\/","longitude":-79.926557},{"area":2400,"street_address":"3213 Dawson St ","baths":3.0,"price":3300,"latitude":40.430637,"beds":7.0,"type":0,"url":"https:\/\/www.zillow.com\/homedetails\/3213-Dawson-St-Pittsburgh-PA-15213\/11420203_zpid\/","longitude":-79.954454},{"area":1426,"street_address":" Alries St ","baths":1.0,"price":850,"latitude":40.39968,"beds":3.0,"type":0,"url":"https:\/\/www.zillow.com\/homedetails\/Alries-St-Pittsburgh-PA-15210\/2080174895_zpid\/","longitude":-79.98571},{"area":2079,"street_address":" Northumberland St ","baths":2.0,"price":3500,"latitude":40.44142,"beds":5.0,"type":0,"url":"https:\/\/www.zillow.com\/homedetails\/Northumberland-St-Pittsburgh-PA-15217\/2080187895_zpid\/","longitude":-79.92337},{"area":3288,"street_address":"314 Lenox Ave ","baths":2.0,"price":1200,"latitude":40.419012,"beds":4.0,"type":1,"url":"https:\/\/www.zillow.com\/homedetails\/314-Lenox-Ave-Pittsburgh-PA-15221\/11455965_zpid\/","longitude":-79.845251},{"area":1170,"street_address":"2637 Atlas St ","baths":1.5,"price":1175,"latitude":40.472181,"beds":3.0,"type":0,"url":"https:\/\/www.zillow.com\/homedetails\/2637-Atlas-St-Pittsburgh-PA-15235\/11569072_zpid\/","longitude":-79.784153},{"area":null,"street_address":"5615 E Liberty Blvd # 1","baths":1.0,"price":2000,"latitude":40.467757,"beds":3.0,"type":1,"url":"https:\/\/www.zillow.com\/homedetails\/5615-E-Liberty-Blvd-1-Pittsburgh-PA-15206\/2080177826_zpid\/","longitude":-79.927418},{"area":null,"street_address":"1927 Fox Way Front 1","baths":2.0,"price":2400,"latitude":40.430069,"beds":4.0,"type":1,"url":"https:\/\/www.zillow.com\/homedetails\/1927-Fox-Way-FRONT-1-Pittsburgh-PA-15203\/2080178594_zpid\/","longitude":-79.977888},{"area":1300,"street_address":"40 Florence Ave Floor 2","baths":1.0,"price":1200,"latitude":40.498473,"beds":4.0,"type":1,"url":"https:\/\/www.zillow.com\/homedetails\/40-Florence-Ave-FLOOR-2-Pittsburgh-PA-15202\/2080178668_zpid\/","longitude":-80.058689},{"area":1800,"street_address":"254 46th St ","baths":2.0,"price":2100,"latitude":40.471511,"beds":3.0,"type":2,"url":"https:\/\/www.zillow.com\/homedetails\/254-46th-St-Pittsburgh-PA-15201\/11513020_zpid\/","longitude":-79.957347},{"area":2148,"street_address":"1248 Tennessee Ave ","baths":2.0,"price":1625,"latitude":40.393093,"beds":4.0,"type":0,"url":"https:\/\/www.zillow.com\/homedetails\/1248-Tennessee-Ave-Pittsburgh-PA-15216\/11652540_zpid\/","longitude":-80.032281},{"area":2328,"street_address":"2966 Belrose Ave ","baths":2.5,"price":1600,"latitude":40.39602,"beds":5.0,"type":0,"url":"https:\/\/www.zillow.com\/homedetails\/2966-Belrose-Ave-Pittsburgh-PA-15216\/11571634_zpid\/","longitude":-80.037855},{"area":null,"street_address":"2558 Beechwood Blvd ","baths":1.0,"price":1500,"latitude":40.428664,"beds":3.0,"type":1,"url":"https:\/\/www.zillow.com\/homedetails\/2558-Beechwood-Blvd-Pittsburgh-PA-15217\/2094510809_zpid\/","longitude":-79.916302},{"area":1066,"street_address":" Chesterfield Rd ","baths":1.0,"price":2200,"latitude":40.44102,"beds":3.0,"type":0,"url":"https:\/\/www.zillow.com\/homedetails\/Chesterfield-Rd-Pittsburgh-PA-15213\/2080182579_zpid\/","longitude":-79.96297},{"area":2522,"street_address":"19 Rosemont Ln ","baths":3.5,"price":2850,"latitude":40.422206,"beds":4.0,"type":0,"url":"https:\/\/www.zillow.com\/homedetails\/19-Rosemont-Ln-Pittsburgh-PA-15217\/11290009_zpid\/","longitude":-79.916111},{"area":1300,"street_address":"122 Ruth St # B","baths":1.5,"price":1499,"latitude":40.423016,"beds":3.0,"type":1,"url":"https:\/\/www.zillow.com\/homedetails\/122-Ruth-St-B-Mount-Washington-PA-15211\/2104992345_zpid\/","longitude":-80.005261},{"area":1478,"street_address":"962 Lilac St ","baths":1.0,"price":1350,"latitude":40.423717,"beds":3.0,"type":2,"url":"https:\/\/www.zillow.com\/homedetails\/962-Lilac-St-Pittsburgh-PA-15217\/11636272_zpid\/","longitude":-79.930968},{"area":1318,"street_address":"1306 Arrowood Dr ","baths":2.0,"price":1680,"latitude":40.365147,"beds":3.0,"type":0,"url":"https:\/\/www.zillow.com\/homedetails\/1306-Arrowood-Dr-Pittsburgh-PA-15243\/11398642_zpid\/","longitude":-80.069108},{"area":2400,"street_address":"1212 Linden Pl ","baths":2.5,"price":2800,"latitude":40.457464,"beds":4.0,"type":0,"url":"https:\/\/www.zillow.com\/homedetails\/1212-Linden-Pl-Pittsburgh-PA-15212\/11388814_zpid\/","longitude":-80.000744},{"area":2400,"street_address":"3321 Ward St ","baths":4.0,"price":4800,"latitude":40.433761,"beds":8.0,"type":0,"url":"https:\/\/www.zillow.com\/homedetails\/3321-Ward-St-Pittsburgh-PA-15213\/11413451_zpid\/","longitude":-79.955055},{"area":2120,"street_address":"5430 Carnegie St ","baths":2.5,"price":2900,"latitude":40.482691,"beds":4.0,"type":0,"url":"https:\/\/www.zillow.com\/homedetails\/5430-Carnegie-St-Pittsburgh-PA-15201\/11275496_zpid\/","longitude":-79.949391},{"area":2000,"street_address":"5433 Carnegie St ","baths":3.0,"price":2800,"latitude":40.483062,"beds":4.0,"type":2,"url":"https:\/\/www.zillow.com\/homedetails\/5433-Carnegie-St-Pittsburgh-PA-15201\/11272843_zpid\/","longitude":-79.949636},{"area":1600,"street_address":"2516 Beechwood Blvd Floor 2","baths":1.0,"price":1700,"latitude":40.429789,"beds":4.0,"type":1,"url":"https:\/\/www.zillow.com\/homedetails\/2516-Beechwood-Blvd-FLOOR-2-Pittsburgh-PA-15217\/2080185800_zpid\/","longitude":-79.915724},{"area":2000,"street_address":"2535 Partridge Dr ","baths":2.5,"price":1900,"latitude":40.318133,"beds":4.0,"type":0,"url":"https:\/\/www.zillow.com\/homedetails\/2535-Partridge-Dr-Pittsburgh-PA-15241\/11551526_zpid\/","longitude":-80.089413},{"area":1193,"street_address":"1915 Columbia Ave ","baths":2.0,"price":1300,"latitude":40.424506,"beds":3.0,"type":0,"url":"https:\/\/www.zillow.com\/homedetails\/1915-Columbia-Ave-Pittsburgh-PA-15218\/11344808_zpid\/","longitude":-79.885307},{"area":1152,"street_address":"2766 Churchview Ave ","baths":1.0,"price":890,"latitude":40.384668,"beds":3.0,"type":0,"url":"https:\/\/www.zillow.com\/homedetails\/2766-Churchview-Ave-Pittsburgh-PA-15227\/11646081_zpid\/","longitude":-79.974435},{"area":1152,"street_address":"2766 Churchview Ave ","baths":1.0,"price":890,"latitude":40.384668,"beds":3.0,"type":0,"url":"https:\/\/www.zillow.com\/homedetails\/2766-Churchview-Ave-Pittsburgh-PA-15227\/11646081_zpid\/","longitude":-79.974435},{"area":1750,"street_address":" Southern Ave ","baths":2.0,"price":1260,"latitude":40.42666,"beds":4.0,"type":0,"url":"https:\/\/www.zillow.com\/homedetails\/Southern-Ave-Pittsburgh-PA-15211\/2085207239_zpid\/","longitude":-80.00902},{"area":null,"street_address":"111 Kenova St # 2","baths":1.0,"price":1400,"latitude":40.426378,"beds":3.0,"type":1,"url":"https:\/\/www.zillow.com\/homedetails\/111-Kenova-St-2-Pittsburgh-PA-15211\/2081307678_zpid\/","longitude":-80.00389},{"area":958,"street_address":" Roland Rd ","baths":1.5,"price":1150,"latitude":40.42674,"beds":3.0,"type":0,"url":"https:\/\/www.zillow.com\/homedetails\/Roland-Rd-Pittsburgh-PA-15221\/2080194167_zpid\/","longitude":-79.83643},{"area":1536,"street_address":"226 Merrimac St ","baths":1.0,"price":1500,"latitude":40.432059,"beds":3.0,"type":0,"url":"https:\/\/www.zillow.com\/homedetails\/226-Merrimac-St-Pittsburgh-PA-15211\/11515362_zpid\/","longitude":-80.013911},{"area":2228,"street_address":"3532 Melwood Ave ","baths":2.0,"price":1600,"latitude":40.459371,"beds":5.0,"type":0,"url":"https:\/\/www.zillow.com\/homedetails\/3532-Melwood-Ave-Pittsburgh-PA-15213\/11402658_zpid\/","longitude":-79.960112},{"area":null,"street_address":" Morrison Dr ","baths":2.0,"price":1395,"latitude":40.39416,"beds":4.0,"type":1,"url":"https:\/\/www.zillow.com\/homedetails\/Morrison-Dr-Pittsburgh-PA-15216\/2087152698_zpid\/","longitude":-80.0481},{"area":1200,"street_address":"1665 Dunluce Dr ","baths":1.0,"price":1090,"latitude":40.362319,"beds":3.0,"type":0,"url":"https:\/\/www.zillow.com\/homedetails\/1665-Dunluce-Dr-Pittsburgh-PA-15227\/11391008_zpid\/","longitude":-79.957761},{"area":3598,"street_address":"973 Osage Rd ","baths":4.5,"price":4500,"latitude":40.387048,"beds":5.0,"type":0,"url":"https:\/\/www.zillow.com\/homedetails\/973-Osage-Rd-Pittsburgh-PA-15243\/11252788_zpid\/","longitude":-80.072573},{"area":null,"street_address":"246 Beverly Rd # 2","baths":1.0,"price":1395,"latitude":40.390268,"beds":3.0,"type":2,"url":"https:\/\/www.zillow.com\/homedetails\/246-Beverly-Rd-2-Pittsburgh-PA-15216\/2080198861_zpid\/","longitude":-80.047953},{"area":1560,"street_address":"5900 Phillips Ave Floor 2","baths":2.0,"price":1920,"latitude":40.432076,"beds":4.0,"type":1,"url":"https:\/\/www.zillow.com\/homedetails\/5900-Phillips-Ave-FLOOR-2-Pittsburgh-PA-15217\/2080198986_zpid\/","longitude":-79.920278},{"area":2416,"street_address":" Windermere Dr ","baths":1.5,"price":1725,"latitude":40.42344,"beds":3.0,"type":0,"url":"https:\/\/www.zillow.com\/homedetails\/Windermere-Dr-Pittsburgh-PA-15218\/2084582437_zpid\/","longitude":-79.90088},{"area":1107,"street_address":"1182 Cedar Blvd ","baths":1.0,"price":1600,"latitude":40.368346,"beds":3.0,"type":0,"url":"https:\/\/www.zillow.com\/homedetails\/1182-Cedar-Blvd-Pittsburgh-PA-15228\/11359782_zpid\/","longitude":-80.061317},{"area":1200,"street_address":"2511 Collins Rd ","baths":2.0,"price":1095,"latitude":40.449657,"beds":3.0,"type":0,"url":"https:\/\/www.zillow.com\/homedetails\/2511-Collins-Rd-Pittsburgh-PA-15235\/11417809_zpid\/","longitude":-79.850458},{"area":1584,"street_address":"3924 Howley St ","baths":3.0,"price":1450,"latitude":40.463271,"beds":3.0,"type":0,"url":"https:\/\/www.zillow.com\/homedetails\/3924-Howley-St-Pittsburgh-PA-15224\/11514697_zpid\/","longitude":-79.95854},{"area":2100,"street_address":" CHILDS ST ","baths":2.0,"price":1950,"latitude":40.42752,"beds":4.0,"type":0,"url":"https:\/\/www.zillow.com\/homedetails\/Childs-St-Pittsburgh-PA-15213\/2086651279_zpid\/","longitude":-79.95084},{"area":1700,"street_address":"125 S 14th St ","baths":2.0,"price":1800,"latitude":40.426008,"beds":3.0,"type":0,"url":"https:\/\/www.zillow.com\/homedetails\/125-S-14th-St-Pittsburgh-PA-15203\/11474591_zpid\/","longitude":-79.983954},{"area":null,"street_address":"579 Lucia Rd ","baths":1.5,"price":915,"latitude":40.426149,"beds":3.0,"type":2,"url":"https:\/\/www.zillow.com\/homedetails\/579-Lucia-Rd-Pittsburgh-PA-15221\/2080217426_zpid\/","longitude":-79.83642},{"area":1735,"street_address":"343 Lawn St # 1","baths":2.0,"price":2500,"latitude":40.434145,"beds":6.0,"type":1,"url":"https:\/\/www.zillow.com\/homedetails\/343-Lawn-St-1-Pittsburgh-PA-15213\/2080212938_zpid\/","longitude":-79.962256},{"area":1600,"street_address":"1918 S 18th St # 1","baths":2.0,"price":1600,"latitude":40.424452,"beds":3.0,"type":1,"url":"https:\/\/www.zillow.com\/homedetails\/1918-S-18th-St-1-Pittsburgh-PA-15203\/2090580049_zpid\/","longitude":-79.978795},{"area":4500,"street_address":"409 E Carson St ","baths":2.0,"price":1895,"latitude":40.429257,"beds":5.0,"type":0,"url":"https:\/\/www.zillow.com\/homedetails\/409-E-Carson-St-Pittsburgh-PA-15203\/11474221_zpid\/","longitude":-79.995914},{"area":1418,"street_address":"27 Yoder St ","baths":2.0,"price":825,"latitude":40.423865,"beds":3.0,"type":0,"url":"https:\/\/www.zillow.com\/homedetails\/27-Yoder-St-Pittsburgh-PA-15207\/11539991_zpid\/","longitude":-79.947521},{"area":1350,"street_address":"120 Prospect St # B","baths":2.0,"price":1650,"latitude":40.428603,"beds":3.0,"type":1,"url":"https:\/\/www.zillow.com\/homedetails\/120-Prospect-St-B-Mount-Washington-PA-15211\/2088420348_zpid\/","longitude":-80.009209},{"area":1360,"street_address":"4347 Murray Ave ","baths":1.5,"price":1095,"latitude":40.420639,"beds":3.0,"type":2,"url":"https:\/\/www.zillow.com\/homedetails\/4347-Murray-Ave-Pittsburgh-PA-15217\/11640038_zpid\/","longitude":-79.92825},{"area":1260,"street_address":" ROSSMORE AVE ","baths":2.0,"price":995,"latitude":40.39465,"beds":3.0,"type":0,"url":"https:\/\/www.zillow.com\/homedetails\/Rossmore-Ave-Pittsburgh-PA-15226\/2086584396_zpid\/","longitude":-80.01883},{"area":1760,"street_address":"1805 Mary St ","baths":2.5,"price":2750,"latitude":40.426221,"beds":5.0,"type":0,"url":"https:\/\/www.zillow.com\/homedetails\/1805-Mary-St-Pittsburgh-PA-15203\/11291033_zpid\/","longitude":-79.980529},{"area":1100,"street_address":" Hobart St ","baths":1.0,"price":1700,"latitude":40.43379,"beds":3.0,"type":1,"url":"https:\/\/www.zillow.com\/homedetails\/Hobart-St-Pittsburgh-PA-15217\/2080229502_zpid\/","longitude":-79.92295},{"area":1774,"street_address":"108 Aprilmae Way ","baths":2.5,"price":2250,"latitude":40.507139,"beds":3.0,"type":2,"url":"https:\/\/www.zillow.com\/homedetails\/108-Aprilmae-Way-Pittsburgh-PA-15237\/123270773_zpid\/","longitude":-80.018185},{"area":1350,"street_address":"567-575 S Negley Ave # 7081982","baths":2.0,"price":1995,"latitude":40.455482,"beds":3.0,"type":1,"url":"https:\/\/www.zillow.com\/homedetails\/567-575-S-Negley-Ave-7081982-Pittsburgh-PA-15232\/2080231971_zpid\/","longitude":-79.932478},{"area":3050,"street_address":"1802 Wharton St ","baths":3.5,"price":2885,"latitude":40.430437,"beds":4.0,"type":0,"url":"https:\/\/www.zillow.com\/homedetails\/1802-Wharton-St-Pittsburgh-PA-15203\/11290681_zpid\/","longitude":-79.980151},{"area":1163,"street_address":"527 Beulah Rd ","baths":1.5,"price":975,"latitude":40.455609,"beds":3.0,"type":0,"url":"https:\/\/www.zillow.com\/homedetails\/527-Beulah-Rd-Pittsburgh-PA-15235\/11452056_zpid\/","longitude":-79.844216},{"area":null,"street_address":"3628 Perrysville Ave # 2","baths":1.5,"price":1175,"latitude":40.485079,"beds":3.0,"type":1,"url":"https:\/\/www.zillow.com\/homedetails\/3628-Perrysville-Ave-2-Pittsburgh-PA-15214\/2080236508_zpid\/","longitude":-80.015441},{"area":1952,"street_address":"3432 Ward St ","baths":3.0,"price":3600,"latitude":40.435582,"beds":6.0,"type":2,"url":"https:\/\/www.zillow.com\/homedetails\/3432-Ward-St-Pittsburgh-PA-15213\/11413449_zpid\/","longitude":-79.954102},{"area":1500,"street_address":"266 Plymouth St # 2","baths":1.0,"price":925,"latitude":40.434418,"beds":3.0,"type":1,"url":"https:\/\/www.zillow.com\/homedetails\/266-Plymouth-St-2-Pittsburgh-PA-15211\/2092315103_zpid\/","longitude":-80.021763},{"area":null,"street_address":"117 S 22nd St # 212334","baths":1.0,"price":1450,"latitude":40.427287,"beds":3.0,"type":1,"url":"https:\/\/www.zillow.com\/homedetails\/117-S-22nd-St-212334-Pittsburgh-PA-15203\/2080240558_zpid\/","longitude":-79.974602},{"area":1408,"street_address":"7515 Ellesmere St ","baths":1.0,"price":850,"latitude":40.417265,"beds":4.0,"type":0,"url":"https:\/\/www.zillow.com\/homedetails\/7515-Ellesmere-St-Pittsburgh-PA-15218\/11383439_zpid\/","longitude":-79.882366},{"area":1100,"street_address":" Serpentine Dr ","baths":1.0,"price":1300,"latitude":40.38246,"beds":3.0,"type":2,"url":"https:\/\/www.zillow.com\/homedetails\/Serpentine-Dr-Pittsburgh-PA-15243\/2085212717_zpid\/","longitude":-80.05421},{"area":2808,"street_address":"230 S Atlantic Ave ","baths":1.0,"price":2299,"latitude":40.462712,"beds":3.0,"type":1,"url":"https:\/\/www.zillow.com\/homedetails\/230-S-Atlantic-Ave-Pittsburgh-PA-15224\/11520922_zpid\/","longitude":-79.939222},{"area":1000,"street_address":"1702 Wrights Way ","baths":1.0,"price":1400,"latitude":40.429221,"beds":3.0,"type":0,"url":"https:\/\/www.zillow.com\/homedetails\/1702-Wrights-Way-Pittsburgh-PA-15203\/2080244200_zpid\/","longitude":-79.981835},{"area":1100,"street_address":"3217 Dawson St # 1","baths":1.0,"price":1400,"latitude":40.430494,"beds":3.0,"type":1,"url":"https:\/\/www.zillow.com\/homedetails\/3217-Dawson-St-1-Pittsburgh-PA-15213\/2080245606_zpid\/","longitude":-79.9544},{"area":1403,"street_address":"429 Carnegie Dr ","baths":2.5,"price":2000,"latitude":40.382556,"beds":4.0,"type":0,"url":"https:\/\/www.zillow.com\/homedetails\/429-Carnegie-Dr-Pittsburgh-PA-15243\/11312664_zpid\/","longitude":-80.05532},{"area":3716,"street_address":"7609 Tuscarora St ","baths":1.0,"price":1095,"latitude":40.446245,"beds":3.0,"type":1,"url":"https:\/\/www.zillow.com\/homedetails\/7609-Tuscarora-St-Pittsburgh-PA-15221\/11341156_zpid\/","longitude":-79.894906},{"area":2295,"street_address":" Woolslayer Way ","baths":1.5,"price":2310,"latitude":40.46481,"beds":3.0,"type":0,"url":"https:\/\/www.zillow.com\/homedetails\/Woolslayer-Way-Pittsburgh-PA-15224\/2084205873_zpid\/","longitude":-79.96003},{"area":1795,"street_address":"344 Lamont Pl ","baths":2.0,"price":2195,"latitude":40.456044,"beds":4.0,"type":0,"url":"https:\/\/www.zillow.com\/homedetails\/344-Lamont-Pl-Pittsburgh-PA-15232\/11624840_zpid\/","longitude":-79.927122},{"area":null,"street_address":"5825 Bartlett St Apt 1M","baths":2.0,"price":2250,"latitude":40.43631,"beds":3.0,"type":1,"url":"https:\/\/www.zillow.com\/homedetails\/5825-Bartlett-St-APT-1M-Pittsburgh-PA-15217\/2080250945_zpid\/","longitude":-79.921653},{"area":1550,"street_address":"28 Magdalene St ","baths":2.0,"price":1450,"latitude":40.423707,"beds":4.0,"type":0,"url":"https:\/\/www.zillow.com\/homedetails\/28-Magdalene-St-Pittsburgh-PA-15203\/11291910_zpid\/","longitude":-79.98071},{"area":2700,"street_address":" Cramden Rd ","baths":2.5,"price":2600,"latitude":40.32243,"beds":4.0,"type":0,"url":"https:\/\/www.zillow.com\/homedetails\/Cramden-Rd-Pittsburgh-PA-15241\/2080728014_zpid\/","longitude":-80.07309},{"area":null,"street_address":"6525 Northumberland St ","baths":1.5,"price":1600,"latitude":40.442581,"beds":3.0,"type":2,"url":"https:\/\/www.zillow.com\/homedetails\/6525-Northumberland-St-Pittsburgh-PA-15217\/2085023995_zpid\/","longitude":-79.916272},{"area":null,"street_address":"405 E End Ave ","baths":1.5,"price":1495,"latitude":40.443759,"beds":3.0,"type":2,"url":"https:\/\/www.zillow.com\/homedetails\/405-E-End-Ave-Pittsburgh-PA-15221\/2080955918_zpid\/","longitude":-79.894809},{"area":1408,"street_address":"112 Secane St ","baths":2.0,"price":1750,"latitude":40.422055,"beds":3.0,"type":0,"url":"https:\/\/www.zillow.com\/homedetails\/112-Secane-St-Mt-Washington-PA-15211\/2082908484_zpid\/","longitude":-80.003267},{"area":1680,"street_address":" Cochran Rd ","baths":3.0,"price":1895,"latitude":40.38819,"beds":4.0,"type":2,"url":"https:\/\/www.zillow.com\/homedetails\/Cochran-Rd-Pittsburgh-PA-15243\/2080792034_zpid\/","longitude":-80.056},{"area":1233,"street_address":"716 Vallevista Ave ","baths":2.0,"price":1550,"latitude":40.364029,"beds":3.0,"type":0,"url":"https:\/\/www.zillow.com\/homedetails\/716-Vallevista-Ave-Pittsburgh-PA-15234\/11396806_zpid\/","longitude":-80.036665},{"area":2800,"street_address":"621 Avery St ","baths":2.5,"price":2200,"latitude":40.453144,"beds":3.0,"type":2,"url":"https:\/\/www.zillow.com\/homedetails\/621-Avery-St-Pittsburgh-PA-15212\/11395505_zpid\/","longitude":-79.998253},{"area":1080,"street_address":"860 Flemington St ","baths":1.0,"price":1450,"latitude":40.426585,"beds":3.0,"type":0,"url":"https:\/\/www.zillow.com\/homedetails\/860-Flemington-St-Pittsburgh-PA-15217\/11539936_zpid\/","longitude":-79.933769},{"area":null,"street_address":"2331 E Carson St ","baths":1.0,"price":1600,"latitude":40.428436,"beds":3.0,"type":1,"url":"https:\/\/www.zillow.com\/homedetails\/2331-E-Carson-St-Pittsburgh-PA-15203\/2096644931_zpid\/","longitude":-79.971579},{"area":1700,"street_address":"5626 Northumberland St ","baths":2.0,"price":2000,"latitude":40.440809,"beds":3.0,"type":0,"url":"https:\/\/www.zillow.com\/homedetails\/5626-Northumberland-St-Pittsburgh-PA-15217\/11630719_zpid\/","longitude":-79.926582},{"area":1100,"street_address":"5954 Phillips Ave ","baths":1.0,"price":1200,"latitude":40.432066,"beds":4.0,"type":1,"url":"https:\/\/www.zillow.com\/homedetails\/5954-Phillips-Ave-Pittsburgh-PA-15217\/2098702590_zpid\/","longitude":-79.918591},{"area":1200,"street_address":"832 Rockwood Ave ","baths":2.0,"price":1695,"latitude":40.363006,"beds":3.0,"type":0,"url":"https:\/\/www.zillow.com\/homedetails\/832-Rockwood-Ave-Pittsburgh-PA-15234\/11396769_zpid\/","longitude":-80.034078},{"area":1544,"street_address":"2127 Larkins Way ","baths":3.0,"price":2100,"latitude":40.427201,"beds":4.0,"type":0,"url":"https:\/\/www.zillow.com\/homedetails\/2127-Larkins-Way-Pittsburgh-PA-15203\/11291294_zpid\/","longitude":-79.97518},{"area":1474,"street_address":"301 Reifert St ","baths":1.0,"price":950,"latitude":40.408587,"beds":3.0,"type":0,"url":"https:\/\/www.zillow.com\/homedetails\/301-Reifert-St-Pittsburgh-PA-15210\/11437026_zpid\/","longitude":-79.994166},{"area":null,"street_address":"526 Boggs Ave # 2","baths":1.0,"price":1575,"latitude":40.422348,"beds":3.0,"type":1,"url":"https:\/\/www.zillow.com\/homedetails\/526-Boggs-Ave-2-Pittsburgh-PA-15211\/2080811959_zpid\/","longitude":-80.010485},{"area":1318,"street_address":"2248 Lehigh St ","baths":2.0,"price":1100,"latitude":40.426601,"beds":4.0,"type":0,"url":"https:\/\/www.zillow.com\/homedetails\/2248-Lehigh-St-Pittsburgh-PA-15218\/11382056_zpid\/","longitude":-79.877211},{"area":1232,"street_address":"103 Elmore Rd ","baths":1.0,"price":1395,"latitude":40.4285,"beds":3.0,"type":0,"url":"https:\/\/www.zillow.com\/homedetails\/103-Elmore-Rd-Pittsburgh-PA-15221\/11419162_zpid\/","longitude":-79.861644},{"area":1396,"street_address":"3100 Kennett Sq ","baths":1.0,"price":1800,"latitude":40.43384,"beds":4.0,"type":0,"url":"https:\/\/www.zillow.com\/homedetails\/3100-Kennett-Sq-Pittsburgh-PA-15213\/11413214_zpid\/","longitude":-79.961537},{"area":1400,"street_address":" Penn Ave ","baths":1.0,"price":2500,"latitude":40.44957,"beds":3.0,"type":1,"url":"https:\/\/www.zillow.com\/homedetails\/Penn-Ave-Pittsburgh-PA-15208\/2083364160_zpid\/","longitude":-79.90701},{"area":1825,"street_address":"1200 Strahley Pl ","baths":1.0,"price":1375,"latitude":40.446322,"beds":3.0,"type":0,"url":"https:\/\/www.zillow.com\/homedetails\/1200-Strahley-Pl-Pittsburgh-PA-15220\/11366530_zpid\/","longitude":-80.042461},{"area":1560,"street_address":"6313 Phillips Ave ","baths":1.0,"price":1950,"latitude":40.43271,"beds":3.0,"type":0,"url":"https:\/\/www.zillow.com\/homedetails\/6313-Phillips-Ave-Pittsburgh-PA-15217\/11635141_zpid\/","longitude":-79.917744},{"area":1800,"street_address":"1902 Baldauf St ","baths":2.0,"price":1400,"latitude":40.422997,"beds":3.0,"type":0,"url":"https:\/\/www.zillow.com\/homedetails\/1902-Baldauf-St-Pittsburgh-PA-15203\/11307388_zpid\/","longitude":-79.980616},{"area":1108,"street_address":"1617 Parkline Dr ","baths":1.0,"price":825,"latitude":40.366715,"beds":3.0,"type":1,"url":"https:\/\/www.zillow.com\/homedetails\/1617-Parkline-Dr-Pittsburgh-PA-15227\/11354702_zpid\/","longitude":-79.968045},{"area":1300,"street_address":"756 Somerville Dr ","baths":1.5,"price":1695,"latitude":40.36375,"beds":3.0,"type":0,"url":"https:\/\/www.zillow.com\/homedetails\/756-Somerville-Dr-Pittsburgh-PA-15243\/11398558_zpid\/","longitude":-80.072339},{"area":1080,"street_address":"916 Maplewood Dr ","baths":1.5,"price":1350,"latitude":40.373187,"beds":3.0,"type":0,"url":"https:\/\/www.zillow.com\/homedetails\/916-Maplewood-Dr-Pittsburgh-PA-15234\/11356591_zpid\/","longitude":-80.015251},{"area":1610,"street_address":"5539 Beacon St ","baths":2.0,"price":2000,"latitude":40.434238,"beds":3.0,"type":1,"url":"https:\/\/www.zillow.com\/homedetails\/5539-Beacon-St-Pittsburgh-PA-15217\/2082888696_zpid\/","longitude":-79.928992},{"area":1502,"street_address":"2929 Arlington Ave ","baths":2.0,"price":1100,"latitude":40.417202,"beds":4.0,"type":0,"url":"https:\/\/www.zillow.com\/homedetails\/2929-Arlington-Ave-Pittsburgh-PA-15210\/2080316994_zpid\/","longitude":-79.966602},{"area":2564,"street_address":"2361 Giant Oaks Dr ","baths":2.5,"price":2750,"latitude":40.326378,"beds":4.0,"type":0,"url":"https:\/\/www.zillow.com\/homedetails\/2361-Giant-Oaks-Dr-Pittsburgh-PA-15241\/11510754_zpid\/","longitude":-80.092098},{"area":1384,"street_address":"1117 Adon St ","baths":2.0,"price":995,"latitude":40.453249,"beds":3.0,"type":0,"url":"https:\/\/www.zillow.com\/homedetails\/1117-Adon-St-Pittsburgh-PA-15204\/11483512_zpid\/","longitude":-80.061237},{"area":1100,"street_address":"5954 Phillips Ave ","baths":1.0,"price":1200,"latitude":40.432066,"beds":4.0,"type":1,"url":"https:\/\/www.zillow.com\/homedetails\/5954-Phillips-Ave-Pittsburgh-PA-15217\/2098702590_zpid\/","longitude":-79.918591},{"area":2000,"street_address":"453 Natchez St ","baths":2.0,"price":1300,"latitude":40.427295,"beds":3.0,"type":0,"url":"https:\/\/www.zillow.com\/homedetails\/453-Natchez-St-Pittsburgh-PA-15211\/11516036_zpid\/","longitude":-80.012838},{"area":1200,"street_address":"832 Rockwood Ave ","baths":2.0,"price":1695,"latitude":40.363006,"beds":3.0,"type":0,"url":"https:\/\/www.zillow.com\/homedetails\/832-Rockwood-Ave-Pittsburgh-PA-15234\/11396769_zpid\/","longitude":-80.034078},{"area":1825,"street_address":"1200 Strahley Pl ","baths":1.0,"price":1375,"latitude":40.446322,"beds":3.0,"type":0,"url":"https:\/\/www.zillow.com\/homedetails\/1200-Strahley-Pl-Pittsburgh-PA-15220\/11366530_zpid\/","longitude":-80.042461},{"area":1080,"street_address":"860 Flemington St ","baths":1.0,"price":1450,"latitude":40.426585,"beds":3.0,"type":0,"url":"https:\/\/www.zillow.com\/homedetails\/860-Flemington-St-Pittsburgh-PA-15217\/11539936_zpid\/","longitude":-79.933769},{"area":1700,"street_address":"5626 Northumberland St ","baths":2.0,"price":2000,"latitude":40.440809,"beds":3.0,"type":0,"url":"https:\/\/www.zillow.com\/homedetails\/5626-Northumberland-St-Pittsburgh-PA-15217\/11630719_zpid\/","longitude":-79.926582},{"area":1384,"street_address":"1117 Adon St ","baths":2.0,"price":995,"latitude":40.453249,"beds":3.0,"type":0,"url":"https:\/\/www.zillow.com\/homedetails\/1117-Adon-St-Pittsburgh-PA-15204\/11483512_zpid\/","longitude":-80.061237},{"area":1250,"street_address":" Carrie St ","baths":2.0,"price":1500,"latitude":40.4613,"beds":3.0,"type":0,"url":"https:\/\/www.zillow.com\/homedetails\/Carrie-St-Pittsburgh-PA-15212\/2080476402_zpid\/","longitude":-80.00219},{"area":null,"street_address":" Buena Vista St ","baths":1.0,"price":1400,"latitude":40.46081,"beds":3.0,"type":1,"url":"https:\/\/www.zillow.com\/homedetails\/Buena-Vista-St-Pittsburgh-PA-15214\/2080529247_zpid\/","longitude":-80.01598},{"area":2100,"street_address":"900 Madison Ave # B","baths":2.0,"price":2900,"latitude":40.455882,"beds":3.0,"type":1,"url":"https:\/\/www.zillow.com\/homedetails\/900-Madison-Ave-B-Pittsburgh-PA-15212\/2080575786_zpid\/","longitude":-79.997212},{"area":1329,"street_address":"184 47th St ","baths":2.0,"price":1700,"latitude":40.474223,"beds":3.0,"type":2,"url":"https:\/\/www.zillow.com\/homedetails\/184-47th-St-Pittsburgh-PA-15201\/11613416_zpid\/","longitude":-79.958675},{"area":null,"street_address":"319 N Balph Ave ","baths":1.0,"price":995,"latitude":40.504231,"beds":3.0,"type":1,"url":"https:\/\/www.zillow.com\/homedetails\/319-N-Balph-Ave-Pittsburgh-PA-15202\/2093916968_zpid\/","longitude":-80.050015},{"area":1600,"street_address":"745 S Millvale Ave Apt 1","baths":2.0,"price":2395,"latitude":40.455535,"beds":4.0,"type":1,"url":"https:\/\/www.zillow.com\/homedetails\/745-S-Millvale-Ave-APT-1-Pittsburgh-PA-15213\/2098376709_zpid\/","longitude":-79.947409},{"area":1464,"street_address":"146 Villa Dr ","baths":3.5,"price":2100,"latitude":40.494538,"beds":3.0,"type":2,"url":"https:\/\/www.zillow.com\/homedetails\/146-Villa-Dr-Pittsburgh-PA-15214\/11328548_zpid\/","longitude":-80.000501},{"area":1900,"street_address":"3906 Liberty Ave ","baths":1.0,"price":1750,"latitude":40.462298,"beds":3.0,"type":0,"url":"https:\/\/www.zillow.com\/homedetails\/3906-Liberty-Ave-Pittsburgh-PA-15224\/11402208_zpid\/","longitude":-79.95895},{"area":1800,"street_address":"5556 Avondale Pl ","baths":1.5,"price":1150,"latitude":40.473273,"beds":3.0,"type":1,"url":"https:\/\/www.zillow.com\/homedetails\/5556-Avondale-Pl-Pittsburgh-PA-15206\/2080399389_zpid\/","longitude":-79.926099},{"area":null,"street_address":"458-460 Idlewood Rd # 458","baths":1.0,"price":849,"latitude":40.464435,"beds":3.0,"type":1,"url":"https:\/\/www.zillow.com\/homedetails\/458-460-Idlewood-Rd-458-Pittsburgh-PA-15235\/2080295252_zpid\/","longitude":-79.807198},{"area":1300,"street_address":"216 N Mathilda St ","baths":1.5,"price":1495,"latitude":40.466766,"beds":3.0,"type":0,"url":"https:\/\/www.zillow.com\/homedetails\/216-N-Mathilda-St-Pittsburgh-PA-15224\/11519882_zpid\/","longitude":-79.945931},{"area":1500,"street_address":"401 Denniston St Floor 2","baths":1.0,"price":2200,"latitude":40.454604,"beds":3.0,"type":1,"url":"https:\/\/www.zillow.com\/homedetails\/401-Denniston-St-FLOOR-2-Pittsburgh-PA-15206\/2080367575_zpid\/","longitude":-79.919782},{"area":2230,"street_address":"3001 Mount Allister Rd ","baths":1.0,"price":1250,"latitude":40.476033,"beds":3.0,"type":0,"url":"https:\/\/www.zillow.com\/homedetails\/3001-Mount-Allister-Rd-Pittsburgh-PA-15214\/11609789_zpid\/","longitude":-80.014296},{"area":1293,"street_address":"184 Stanton Ct E ","baths":1.5,"price":1800,"latitude":40.481096,"beds":3.0,"type":0,"url":"https:\/\/www.zillow.com\/homedetails\/184-Stanton-Ct-E-Pittsburgh-PA-15201\/11615233_zpid\/","longitude":-79.935062},{"area":1194,"street_address":"352 Whittier Dr ","baths":1.5,"price":1050,"latitude":40.456713,"beds":4.0,"type":0,"url":"https:\/\/www.zillow.com\/homedetails\/352-Whittier-Dr-Pittsburgh-PA-15235\/11493445_zpid\/","longitude":-79.817604},{"area":null,"street_address":"5916 Howe St ","baths":2.0,"price":1950,"latitude":40.452631,"beds":3.0,"type":1,"url":"https:\/\/www.zillow.com\/homedetails\/5916-Howe-St-Pittsburgh-PA-15232\/2080261116_zpid\/","longitude":-79.925806},{"area":1328,"street_address":"5546 Darlington Rd ","baths":3.5,"price":3000,"latitude":40.436492,"beds":3.0,"type":2,"url":"https:\/\/www.zillow.com\/homedetails\/5546-Darlington-Rd-Pittsburgh-PA-15217\/11631364_zpid\/","longitude":-79.928842},{"area":1420,"street_address":"38 Beltzhoover Ave ","baths":2.0,"price":1000,"latitude":40.424573,"beds":3.0,"type":0,"url":"https:\/\/www.zillow.com\/homedetails\/38-Beltzhoover-Ave-Pittsburgh-PA-15210\/11474843_zpid\/","longitude":-79.997795},{"area":1308,"street_address":"321 44th St ","baths":2.5,"price":2400,"latitude":40.469774,"beds":3.0,"type":0,"url":"https:\/\/www.zillow.com\/homedetails\/321-44th-St-Pittsburgh-PA-15201\/11513012_zpid\/","longitude":-79.957057},{"area":1680,"street_address":"426 Noble St ","baths":3.0,"price":2895,"latitude":40.454249,"beds":5.0,"type":0,"url":"https:\/\/www.zillow.com\/homedetails\/426-Noble-St-Pittsburgh-PA-15232\/11525517_zpid\/","longitude":-79.936704},{"area":null,"street_address":"3452 Bates St # 4","baths":1.0,"price":1810,"latitude":40.436437,"beds":3.0,"type":1,"url":"https:\/\/www.zillow.com\/homedetails\/3452-Bates-St-4-Pittsburgh-PA-15213\/2080268458_zpid\/","longitude":-79.95547},{"area":null,"street_address":"3728 Dawson St # 2","baths":1.0,"price":1440,"latitude":40.438006,"beds":3.0,"type":1,"url":"https:\/\/www.zillow.com\/homedetails\/3728-Dawson-St-2-Pittsburgh-PA-15213\/2080268658_zpid\/","longitude":-79.951779},{"area":1476,"street_address":"900 Gibson St ","baths":1.5,"price":1195,"latitude":40.444278,"beds":3.0,"type":0,"url":"https:\/\/www.zillow.com\/homedetails\/900-Gibson-St-Pittsburgh-PA-15220\/11367030_zpid\/","longitude":-80.038157},{"area":null,"street_address":"203 Gilliland Ave ","baths":1.0,"price":1200,"latitude":40.48828,"beds":3.0,"type":1,"url":"https:\/\/www.zillow.com\/homedetails\/203-Gilliland-Ave-Pittsburgh-PA-15202\/2080269317_zpid\/","longitude":-80.054403},{"area":1500,"street_address":"326 Grace St # 326","baths":2.0,"price":1450,"latitude":40.430514,"beds":3.0,"type":1,"url":"https:\/\/www.zillow.com\/homedetails\/326-Grace-St-326-Pittsburgh-PA-15211\/2080272500_zpid\/","longitude":-80.01189},{"area":null,"street_address":"200 Lehigh Ave # 1","baths":3.5,"price":3000,"latitude":40.458448,"beds":3.0,"type":1,"url":"https:\/\/www.zillow.com\/homedetails\/200-Lehigh-Ave-1-Pittsburgh-PA-15232\/2080273115_zpid\/","longitude":-79.926519},{"area":1840,"street_address":"4918 Penn Ave ","baths":2.0,"price":2100,"latitude":40.46496,"beds":3.0,"type":0,"url":"https:\/\/www.zillow.com\/homedetails\/4918-Penn-Ave-Pittsburgh-PA-15224\/11520083_zpid\/","longitude":-79.944485},{"area":2750,"street_address":"161 Pius St ","baths":4.0,"price":2450,"latitude":40.424313,"beds":4.0,"type":2,"url":"https:\/\/www.zillow.com\/homedetails\/161-Pius-St-Pittsburgh-PA-15203\/11291760_zpid\/","longitude":-79.978933},{"area":1338,"street_address":"1029 Mirror St ","baths":2.5,"price":1500,"latitude":40.426535,"beds":3.0,"type":0,"url":"https:\/\/www.zillow.com\/homedetails\/1029-Mirror-St-Pittsburgh-PA-15217\/11635689_zpid\/","longitude":-79.929774},{"area":1800,"street_address":"192 Cochran Rd ","baths":2.5,"price":1600,"latitude":40.37736,"beds":4.0,"type":0,"url":"https:\/\/www.zillow.com\/homedetails\/192-Cochran-Rd-Pittsburgh-PA-15228\/11313408_zpid\/","longitude":-80.050659},{"area":1512,"street_address":"1312 Pocono Rear ","baths":2.0,"price":2100,"latitude":40.423794,"beds":4.0,"type":0,"url":"https:\/\/www.zillow.com\/homedetails\/1312-Pocono-Rear-Pittsburgh-PA-15218\/2080500951_zpid\/","longitude":-79.890192},{"area":2200,"street_address":"390 Orchard Dr # 390","baths":1.0,"price":1790,"latitude":40.368068,"beds":4.0,"type":1,"url":"https:\/\/www.zillow.com\/homedetails\/390-Orchard-Dr-390-Pittsburgh-PA-15228\/2080770294_zpid\/","longitude":-80.041513},{"area":1500,"street_address":"2911 Mary St ","baths":1.5,"price":1350,"latitude":40.42341,"beds":3.0,"type":0,"url":"https:\/\/www.zillow.com\/homedetails\/2911-Mary-St-Pittsburgh-PA-15203\/11307811_zpid\/","longitude":-79.966261},{"area":1442,"street_address":"2323 Pittock St ","baths":1.0,"price":1900,"latitude":40.430749,"beds":3.0,"type":0,"url":"https:\/\/www.zillow.com\/homedetails\/2323-Pittock-St-Pittsburgh-PA-15217\/11635485_zpid\/","longitude":-79.920377},{"area":1921,"street_address":"512 Gross St ","baths":1.5,"price":2120,"latitude":40.459095,"beds":3.0,"type":0,"url":"https:\/\/www.zillow.com\/homedetails\/512-Gross-St-Pittsburgh-PA-15224\/11524712_zpid\/","longitude":-79.945447},{"area":2376,"street_address":"4037 California Ave ","baths":1.0,"price":1295,"latitude":40.486838,"beds":3.0,"type":2,"url":"https:\/\/www.zillow.com\/homedetails\/4037-California-Ave-Pittsburgh-PA-15212\/11268362_zpid\/","longitude":-80.044953},{"area":2200,"street_address":"838 Windom St ","baths":2.5,"price":2300,"latitude":40.426145,"beds":4.0,"type":0,"url":"https:\/\/www.zillow.com\/homedetails\/838-Windom-St-Pittsburgh-PA-15203\/11474514_zpid\/","longitude":-79.990034},{"area":3669,"street_address":"2513 Leticoe St ","baths":2.0,"price":1600,"latitude":40.423573,"beds":3.0,"type":1,"url":"https:\/\/www.zillow.com\/homedetails\/2513-Leticoe-St-Pittsburgh-PA-15203\/11292008_zpid\/","longitude":-79.971244},{"area":1100,"street_address":"1412 Hartwell St ","baths":1.0,"price":1400,"latitude":40.436804,"beds":3.0,"type":0,"url":"https:\/\/www.zillow.com\/homedetails\/1412-Hartwell-St-Pittsburgh-PA-15205\/2096615361_zpid\/","longitude":-80.050834},{"area":1600,"street_address":"449 Grace St ","baths":2.5,"price":2500,"latitude":40.428714,"beds":3.0,"type":2,"url":"https:\/\/www.zillow.com\/homedetails\/449-Grace-St-Pittsburgh-PA-15211\/87987040_zpid\/","longitude":-80.0139},{"area":2200,"street_address":"510 S Highland Ave Apt 2","baths":2.0,"price":2200,"latitude":40.452826,"beds":3.0,"type":1,"url":"https:\/\/www.zillow.com\/homedetails\/510-S-Highland-Ave-APT-2-Pittsburgh-PA-15206\/2099175385_zpid\/","longitude":-79.924921},{"area":1330,"street_address":"2326 Sidney St ","baths":1.0,"price":1600,"latitude":40.42902,"beds":3.0,"type":0,"url":"https:\/\/www.zillow.com\/homedetails\/2326-Sidney-St-Pittsburgh-PA-15203\/11290880_zpid\/","longitude":-79.971915},{"area":2500,"street_address":"575 S Braddock Ave Floor 2","baths":2.0,"price":2500,"latitude":40.440331,"beds":4.0,"type":1,"url":"https:\/\/www.zillow.com\/homedetails\/575-S-Braddock-Ave-FLOOR-2-Pittsburgh-PA-15221\/2080290158_zpid\/","longitude":-79.897461},{"area":1025,"street_address":"2010 Lucina Ave ","baths":1.0,"price":1250,"latitude":40.392908,"beds":3.0,"type":0,"url":"https:\/\/www.zillow.com\/homedetails\/2010-Lucina-Ave-Pittsburgh-PA-15210\/11647011_zpid\/","longitude":-79.993836},{"area":1300,"street_address":"1622 Hatteras St Apt 2","baths":2.0,"price":1300,"latitude":40.463875,"beds":3.0,"type":1,"url":"https:\/\/www.zillow.com\/homedetails\/1622-Hatteras-St-APT-2-Pittsburgh-PA-15212\/2080293751_zpid\/","longitude":-79.983687},{"area":1400,"street_address":"253 Gross St # 2","baths":1.0,"price":1600,"latitude":40.463185,"beds":3.0,"type":1,"url":"https:\/\/www.zillow.com\/homedetails\/253-Gross-St-2-Pittsburgh-PA-15224\/2084586916_zpid\/","longitude":-79.944053},{"area":null,"street_address":"409 Morewood Ave # 3","baths":2.0,"price":2400,"latitude":40.452871,"beds":4.0,"type":1,"url":"https:\/\/www.zillow.com\/homedetails\/409-Morewood-Ave-3-Pittsburgh-PA-15213\/2080295885_zpid\/","longitude":-79.943417},{"area":1900,"street_address":"1225 Monterey St ","baths":2.5,"price":2250,"latitude":40.455541,"beds":3.0,"type":1,"url":"https:\/\/www.zillow.com\/homedetails\/1225-Monterey-St-Pittsburgh-PA-15212\/11388317_zpid\/","longitude":-80.013292},{"area":1440,"street_address":"1385 Glencoe Ave ","baths":3.0,"price":2380,"latitude":40.40866,"beds":4.0,"type":0,"url":"https:\/\/www.zillow.com\/homedetails\/1385-Glencoe-Ave-Pittsburgh-PA-15205\/11460210_zpid\/","longitude":-80.057681},{"area":1000,"street_address":"3809 Brighton Rd ","baths":1.0,"price":1100,"latitude":40.484648,"beds":3.0,"type":1,"url":"https:\/\/www.zillow.com\/homedetails\/3809-Brighton-Rd-Pittsburgh-PA-15212\/11268926_zpid\/","longitude":-80.036327},{"area":null,"street_address":"241 Atwood St # 2","baths":1.0,"price":1800,"latitude":40.440255,"beds":3.0,"type":1,"url":"https:\/\/www.zillow.com\/homedetails\/241-Atwood-St-2-Pittsburgh-PA-15213\/2081579923_zpid\/","longitude":-79.95624},{"area":1496,"street_address":"215 Elwyn Ave ","baths":1.0,"price":1100,"latitude":40.376457,"beds":3.0,"type":0,"url":"https:\/\/www.zillow.com\/homedetails\/215-Elwyn-Ave-Pittsburgh-PA-15234\/11307254_zpid\/","longitude":-80.002817},{"area":1500,"street_address":" Dresden Way ","baths":2.0,"price":1700,"latitude":40.47838,"beds":3.0,"type":0,"url":"https:\/\/www.zillow.com\/homedetails\/Dresden-Way-Pittsburgh-PA-15201\/2082368328_zpid\/","longitude":-79.9557},{"area":2699,"street_address":"152 Vanderbilt Dr ","baths":2.5,"price":3000,"latitude":40.376031,"beds":4.0,"type":0,"url":"https:\/\/www.zillow.com\/homedetails\/152-Vanderbilt-Dr-Pittsburgh-PA-15243\/11314399_zpid\/","longitude":-80.078841},{"area":3022,"street_address":"1409 N Highland Ave ","baths":2.5,"price":2350,"latitude":40.477123,"beds":3.0,"type":2,"url":"https:\/\/www.zillow.com\/homedetails\/1409-N-Highland-Ave-Pittsburgh-PA-15206\/11620055_zpid\/","longitude":-79.917494},{"area":2400,"street_address":"2115 Wharton St ","baths":2.5,"price":2600,"latitude":40.430539,"beds":4.0,"type":0,"url":"https:\/\/www.zillow.com\/homedetails\/2115-Wharton-St-Pittsburgh-PA-15203\/2107374011_zpid\/","longitude":-79.975347},{"area":1000,"street_address":"346 Bigelow St ","baths":1.5,"price":1200,"latitude":40.419544,"beds":4.0,"type":2,"url":"https:\/\/www.zillow.com\/homedetails\/346-Bigelow-St-Pittsburgh-PA-15207\/11544982_zpid\/","longitude":-79.942739},{"area":1800,"street_address":"865 Mirror St ","baths":1.5,"price":1650,"latitude":40.426521,"beds":3.0,"type":2,"url":"https:\/\/www.zillow.com\/homedetails\/865-Mirror-St-Pittsburgh-PA-15217\/2105936204_zpid\/","longitude":-79.933225},{"area":1800,"street_address":"1820 Banksville Rd ","baths":1.0,"price":1350,"latitude":40.407845,"beds":4.0,"type":0,"url":"https:\/\/www.zillow.com\/homedetails\/1820-Banksville-Rd-Pittsburgh-PA-15216\/11453265_zpid\/","longitude":-80.033703},{"area":1392,"street_address":"142 Morewood Ave ","baths":1.0,"price":1695,"latitude":40.45582,"beds":4.0,"type":0,"url":"https:\/\/www.zillow.com\/homedetails\/142-Morewood-Ave-Pittsburgh-PA-15213\/11525072_zpid\/","longitude":-79.948639},{"area":1939,"street_address":"1012 Bradish St ","baths":2.0,"price":2000,"latitude":40.426985,"beds":4.0,"type":0,"url":"https:\/\/www.zillow.com\/homedetails\/1012-Bradish-St-Pittsburgh-PA-15203\/11474483_zpid\/","longitude":-79.987968},{"area":1970,"street_address":" Linden Ave ","baths":2.5,"price":1350,"latitude":40.36874,"beds":3.0,"type":0,"url":"https:\/\/www.zillow.com\/homedetails\/Linden-Ave-Pittsburgh-PA-15234\/2080324117_zpid\/","longitude":-80.02171},{"area":1094,"street_address":"5230 Willock Rd E # A","baths":1.0,"price":950,"latitude":40.353159,"beds":3.0,"type":1,"url":"https:\/\/www.zillow.com\/homedetails\/5230-Willock-Rd-E-A-Pittsburgh-PA-15236\/2080325331_zpid\/","longitude":-79.963435},{"area":1896,"street_address":"176 Grant Ave ","baths":2.0,"price":1500,"latitude":40.509017,"beds":4.0,"type":0,"url":"https:\/\/www.zillow.com\/homedetails\/176-Grant-Ave-Pittsburgh-PA-15223\/11372426_zpid\/","longitude":-79.952182},{"area":2260,"street_address":"4051 Liberty Ave ","baths":2.5,"price":3000,"latitude":40.463353,"beds":5.0,"type":0,"url":"https:\/\/www.zillow.com\/homedetails\/4051-Liberty-Ave-Pittsburgh-PA-15224\/11514921_zpid\/","longitude":-79.955336},{"area":1904,"street_address":"1821 Larkins Way ","baths":3.5,"price":1650,"latitude":40.427468,"beds":3.0,"type":1,"url":"https:\/\/www.zillow.com\/homedetails\/1821-Larkins-Way-Pittsburgh-PA-15203\/11291106_zpid\/","longitude":-79.979777},{"area":1344,"street_address":"112 S 17th St ","baths":2.0,"price":1495,"latitude":40.428126,"beds":3.0,"type":0,"url":"https:\/\/www.zillow.com\/homedetails\/112-S-17th-St-Pittsburgh-PA-15203\/11291230_zpid\/","longitude":-79.982351},{"area":1800,"street_address":"6601 Woodwell St ","baths":1.0,"price":1600,"latitude":40.444389,"beds":3.0,"type":1,"url":"https:\/\/www.zillow.com\/homedetails\/6601-Woodwell-St-Pittsburgh-PA-15217\/11288315_zpid\/","longitude":-79.915316},{"area":2080,"street_address":"2233 Arlington Ave ","baths":1.0,"price":1150,"latitude":40.417381,"beds":3.0,"type":2,"url":"https:\/\/www.zillow.com\/homedetails\/2233-Arlington-Ave-Pittsburgh-PA-15210\/11308437_zpid\/","longitude":-79.974631},{"area":null,"street_address":"1155 Portland St # 2","baths":1.0,"price":2000,"latitude":40.476641,"beds":3.0,"type":1,"url":"https:\/\/www.zillow.com\/homedetails\/1155-Portland-St-2-Pittsburgh-PA-15206\/2080343737_zpid\/","longitude":-79.92301},{"area":1494,"street_address":"5709 Melvin St ","baths":1.5,"price":2600,"latitude":40.430936,"beds":4.0,"type":0,"url":"https:\/\/www.zillow.com\/homedetails\/5709-Melvin-St-Pittsburgh-PA-15217\/11634793_zpid\/","longitude":-79.924544},{"area":1448,"street_address":"2326 Murray Ave ","baths":1.5,"price":2500,"latitude":40.430821,"beds":4.0,"type":0,"url":"https:\/\/www.zillow.com\/homedetails\/2326-Murray-Ave-Pittsburgh-PA-15217\/11635415_zpid\/","longitude":-79.923656},{"area":2200,"street_address":"2014 Sarah St ","baths":3.0,"price":2550,"latitude":40.427456,"beds":4.0,"type":0,"url":"https:\/\/www.zillow.com\/homedetails\/2014-Sarah-St-Pittsburgh-PA-15203\/11291266_zpid\/","longitude":-79.977071},{"area":1197,"street_address":"732 Pennwood Dr ","baths":2.0,"price":1375,"latitude":40.452654,"beds":3.0,"type":0,"url":"https:\/\/www.zillow.com\/homedetails\/732-Pennwood-Dr-Pittsburgh-PA-15235\/11453666_zpid\/","longitude":-79.840157},{"area":1000,"street_address":"6111 Alder St Apt 1A","baths":1.5,"price":1595,"latitude":40.457301,"beds":3.0,"type":1,"url":"https:\/\/www.zillow.com\/homedetails\/6111-Alder-St-APT-1A-Pittsburgh-PA-15206\/2091616370_zpid\/","longitude":-79.923768},{"area":1650,"street_address":"702 Southern Ave ","baths":2.0,"price":2200,"latitude":40.419803,"beds":4.0,"type":0,"url":"https:\/\/www.zillow.com\/homedetails\/702-Southern-Ave-Pittsburgh-PA-15211\/11323848_zpid\/","longitude":-80.01354},{"area":2400,"street_address":" Termon Ave ","baths":3.0,"price":2995,"latitude":40.48298,"beds":5.0,"type":0,"url":"https:\/\/www.zillow.com\/homedetails\/Termon-Ave-Pittsburgh-PA-15212\/2080365374_zpid\/","longitude":-80.04553},{"area":2750,"street_address":" Shadyhill Rd ","baths":3.0,"price":2995,"latitude":40.43529,"beds":5.0,"type":0,"url":"https:\/\/www.zillow.com\/homedetails\/Shadyhill-Rd-Pittsburgh-PA-15205\/2080365511_zpid\/","longitude":-80.04875},{"area":1440,"street_address":"1923 Wayne St ","baths":1.0,"price":1000,"latitude":40.421072,"beds":3.0,"type":0,"url":"https:\/\/www.zillow.com\/homedetails\/1923-Wayne-St-Pittsburgh-PA-15218\/11345748_zpid\/","longitude":-79.890522},{"area":null,"street_address":"115 Stratford Ave Apt 2","baths":2.0,"price":1495,"latitude":40.463197,"beds":3.0,"type":1,"url":"https:\/\/www.zillow.com\/homedetails\/115-Stratford-Ave-APT-2-Pittsburgh-PA-15206\/2080366914_zpid\/","longitude":-79.931635},{"area":2862,"street_address":"5553 Darlington Rd ","baths":1.0,"price":2000,"latitude":40.437052,"beds":3.0,"type":0,"url":"https:\/\/www.zillow.com\/homedetails\/5553-Darlington-Rd-Pittsburgh-PA-15217\/11631315_zpid\/","longitude":-79.928683},{"area":1323,"street_address":"134 41st St ","baths":1.0,"price":1750,"latitude":40.470924,"beds":3.0,"type":2,"url":"https:\/\/www.zillow.com\/homedetails\/134-41st-St-Pittsburgh-PA-15201\/11512638_zpid\/","longitude":-79.96364},{"area":1800,"street_address":"523 Saint James Pl ","baths":2.5,"price":3000,"latitude":40.452789,"beds":3.0,"type":1,"url":"https:\/\/www.zillow.com\/homedetails\/523-Saint-James-Pl-Pittsburgh-PA-15232\/11525341_zpid\/","longitude":-79.938052},{"area":3031,"street_address":"511 Lenox Ave ","baths":1.5,"price":1200,"latitude":40.419972,"beds":5.0,"type":0,"url":"https:\/\/www.zillow.com\/homedetails\/511-Lenox-Ave-Pittsburgh-PA-15221\/11456179_zpid\/","longitude":-79.843784},{"area":1178,"street_address":"3332 Parkview Ave ","baths":2.0,"price":1750,"latitude":40.4325,"beds":3.0,"type":2,"url":"https:\/\/www.zillow.com\/homedetails\/3332-Parkview-Ave-Pittsburgh-PA-15213\/11420162_zpid\/","longitude":-79.952259},{"area":1838,"street_address":"306 S Aiken Ave ","baths":3.0,"price":2500,"latitude":40.461562,"beds":4.0,"type":2,"url":"https:\/\/www.zillow.com\/homedetails\/306-S-Aiken-Ave-Pittsburgh-PA-15232\/11524432_zpid\/","longitude":-79.937983},{"area":1600,"street_address":"3600 Dawson St # 1-A","baths":2.0,"price":2600,"latitude":40.436238,"beds":4.0,"type":1,"url":"https:\/\/www.zillow.com\/homedetails\/3600-Dawson-St-1-A-Pittsburgh-PA-15213\/2080395482_zpid\/","longitude":-79.952532},{"area":null,"street_address":"3617 Dawson St # 2-A","baths":1.0,"price":1695,"latitude":40.436821,"beds":3.0,"type":1,"url":"https:\/\/www.zillow.com\/homedetails\/3617-Dawson-St-2-A-Pittsburgh-PA-15213\/2080395585_zpid\/","longitude":-79.952792},{"area":1700,"street_address":"1301 Manhattan St # 2","baths":1.5,"price":1950,"latitude":40.45367,"beds":3.0,"type":2,"url":"https:\/\/www.zillow.com\/homedetails\/1301-Manhattan-St-2-Pittsburgh-PA-15233\/2093981019_zpid\/","longitude":-80.026343},{"area":1600,"street_address":"1701 Leolyn St ","baths":1.0,"price":975,"latitude":40.398913,"beds":3.0,"type":0,"url":"https:\/\/www.zillow.com\/homedetails\/1701-Leolyn-St-Pittsburgh-PA-15210\/11556931_zpid\/","longitude":-79.985819},{"area":null,"street_address":"403 Ormsby Ave Floor 2","baths":1.5,"price":1100,"latitude":40.413019,"beds":3.0,"type":1,"url":"https:\/\/www.zillow.com\/homedetails\/403-Ormsby-Ave-FLOOR-2-Pittsburgh-PA-15210\/2080441464_zpid\/","longitude":-79.981514},{"area":1560,"street_address":"5135 Beeler St ","baths":2.5,"price":2600,"latitude":40.444674,"beds":3.0,"type":0,"url":"https:\/\/www.zillow.com\/homedetails\/5135-Beeler-St-Pittsburgh-PA-15217\/11529732_zpid\/","longitude":-79.93781},{"area":3600,"street_address":"1250 S Negley Ave ","baths":5.0,"price":3800,"latitude":40.444605,"beds":4.0,"type":0,"url":"https:\/\/www.zillow.com\/homedetails\/1250-S-Negley-Ave-Pittsburgh-PA-15217\/11629849_zpid\/","longitude":-79.926714},{"area":1232,"street_address":"583 Neeb St ","baths":1.0,"price":1350,"latitude":40.428143,"beds":3.0,"type":0,"url":"https:\/\/www.zillow.com\/homedetails\/583-Neeb-St-Pittsburgh-PA-15207\/11539785_zpid\/","longitude":-79.940345},{"area":1800,"street_address":"1120 Freyburg St ","baths":1.5,"price":1850,"latitude":40.426545,"beds":4.0,"type":0,"url":"https:\/\/www.zillow.com\/homedetails\/1120-Freyburg-St-Pittsburgh-PA-15203\/11474754_zpid\/","longitude":-79.9866},{"area":1795,"street_address":"357 Lawn St ","baths":1.0,"price":1300,"latitude":40.433837,"beds":3.0,"type":1,"url":"https:\/\/www.zillow.com\/homedetails\/357-Lawn-St-Pittsburgh-PA-15213\/11413213_zpid\/","longitude":-79.961322},{"area":1200,"street_address":"5 Craig Ct ","baths":1.0,"price":1200,"latitude":40.375145,"beds":3.0,"type":0,"url":"https:\/\/www.zillow.com\/homedetails\/5-Craig-Ct-Pittsburgh-PA-15228\/2096526520_zpid\/","longitude":-80.033789},{"area":2016,"street_address":"610 Arbor Ct ","baths":3.0,"price":2700,"latitude":40.485571,"beds":3.0,"type":2,"url":"https:\/\/www.zillow.com\/homedetails\/610-Arbor-Ct-Pittsburgh-PA-15238\/87989026_zpid\/","longitude":-79.883349},{"area":1500,"street_address":"4628 Winthrop St ","baths":2.0,"price":3250,"latitude":40.445786,"beds":3.0,"type":2,"url":"https:\/\/www.zillow.com\/homedetails\/4628-Winthrop-St-Pittsburgh-PA-15213\/2080408953_zpid\/","longitude":-79.947575},{"area":3293,"street_address":"5249 Ellsworth Ave # 2","baths":2.0,"price":2350,"latitude":40.45255,"beds":3.0,"type":1,"url":"https:\/\/www.zillow.com\/homedetails\/5249-Ellsworth-Ave-2-Pittsburgh-PA-15232\/2085149646_zpid\/","longitude":-79.937998},{"area":2400,"street_address":"220 Newburn Dr ","baths":3.5,"price":3300,"latitude":40.394823,"beds":4.0,"type":0,"url":"https:\/\/www.zillow.com\/homedetails\/220-Newburn-Dr-Pittsburgh-PA-15216\/11571465_zpid\/","longitude":-80.04874},{"area":1376,"street_address":"5734 Alder Way ","baths":2.0,"price":1800,"latitude":40.455011,"beds":3.0,"type":2,"url":"https:\/\/www.zillow.com\/homedetails\/5734-Alder-Way-Pittsburgh-PA-15232\/11625253_zpid\/","longitude":-79.930971},{"area":1144,"street_address":"10209 Meyers St ","baths":1.0,"price":950,"latitude":40.462459,"beds":3.0,"type":0,"url":"https:\/\/www.zillow.com\/homedetails\/10209-Meyers-St-Pittsburgh-PA-15235\/11416143_zpid\/","longitude":-79.85176},{"area":2240,"street_address":"133 S 18th St # 2","baths":2.0,"price":2700,"latitude":40.426737,"beds":4.0,"type":1,"url":"https:\/\/www.zillow.com\/homedetails\/133-S-18th-St-2-Pittsburgh-PA-15203\/2080416108_zpid\/","longitude":-79.980518},{"area":1428,"street_address":"13 Nusser St ","baths":1.5,"price":1350,"latitude":40.425114,"beds":3.0,"type":0,"url":"https:\/\/www.zillow.com\/homedetails\/13-Nusser-St-Pittsburgh-PA-15203\/11475178_zpid\/","longitude":-79.985535},{"area":1705,"street_address":"173 Anthon Dr ","baths":1.5,"price":1050,"latitude":40.465837,"beds":3.0,"type":0,"url":"https:\/\/www.zillow.com\/homedetails\/173-Anthon-Dr-Pittsburgh-PA-15235\/11532572_zpid\/","longitude":-79.800838},{"area":1600,"street_address":"509 Industry St ","baths":1.0,"price":850,"latitude":40.420876,"beds":3.0,"type":0,"url":"https:\/\/www.zillow.com\/homedetails\/509-Industry-St-Pittsburgh-PA-15210\/11315367_zpid\/","longitude":-79.99851},{"area":null,"street_address":"114 Van St ","baths":2.0,"price":169900,"latitude":40.396787,"beds":3.0,"type":0,"url":"https:\/\/www.zillow.com\/homedetails\/114-Van-St-Pittsburgh-PA-15226\/2080438434_zpid\/","longitude":-80.013858},{"area":null,"street_address":"2108 Murray Ave Floor 2","baths":1.5,"price":1875,"latitude":40.433383,"beds":4.0,"type":1,"url":"https:\/\/www.zillow.com\/homedetails\/2108-Murray-Ave-FLOOR-2-Pittsburgh-PA-15217\/2080438629_zpid\/","longitude":-79.923263},{"area":1376,"street_address":"248 Robinson St ","baths":1.0,"price":2000,"latitude":40.44204,"beds":4.0,"type":0,"url":"https:\/\/www.zillow.com\/homedetails\/248-Robinson-St-Pittsburgh-PA-15213\/11412335_zpid\/","longitude":-79.965471},{"area":2840,"street_address":" PHILLIPS AVE ","baths":2.5,"price":2480,"latitude":40.43346,"beds":5.0,"type":0,"url":"https:\/\/www.zillow.com\/homedetails\/Phillips-Ave-Pittsburgh-PA-15217\/2087143780_zpid\/","longitude":-79.91416},{"area":1750,"street_address":"2100 Sidney St # 1","baths":2.0,"price":2650,"latitude":40.429232,"beds":4.0,"type":1,"url":"https:\/\/www.zillow.com\/homedetails\/2100-Sidney-St-1-Pittsburgh-PA-15203\/2100887612_zpid\/","longitude":-79.975998},{"area":1845,"street_address":"3456 Fleming Ave ","baths":1.0,"price":1167,"latitude":40.478319,"beds":4.0,"type":0,"url":"https:\/\/www.zillow.com\/homedetails\/3456-Fleming-Ave-Pittsburgh-PA-15212\/11603944_zpid\/","longitude":-80.03846},{"area":1735,"street_address":" Cohassett St ","baths":1.5,"price":995,"latitude":40.43638,"beds":3.0,"type":0,"url":"https:\/\/www.zillow.com\/homedetails\/Cohassett-St-Pittsburgh-PA-15211\/2080452131_zpid\/","longitude":-80.01883},{"area":1632,"street_address":"1620 Beechwood Blvd ","baths":1.0,"price":1650,"latitude":40.439968,"beds":3.0,"type":2,"url":"https:\/\/www.zillow.com\/homedetails\/1620-Beechwood-Blvd-Pittsburgh-PA-15217\/2080453087_zpid\/","longitude":-79.917281},{"area":1064,"street_address":"130 Chesterfield Rd ","baths":1.5,"price":2200,"latitude":40.439971,"beds":3.0,"type":2,"url":"https:\/\/www.zillow.com\/homedetails\/130-Chesterfield-Rd-Pittsburgh-PA-15213\/11412404_zpid\/","longitude":-79.962246},{"area":null,"street_address":"3835 Hiawatha St # 2","baths":1.0,"price":825,"latitude":40.483655,"beds":3.0,"type":1,"url":"https:\/\/www.zillow.com\/homedetails\/3835-Hiawatha-St-2-Pittsburgh-PA-15212\/2080453491_zpid\/","longitude":-80.044261},{"area":null,"street_address":"5823-5829 Howe St ","baths":2.5,"price":4320,"latitude":40.452484,"beds":4.0,"type":1,"url":"https:\/\/www.zillow.com\/homedetails\/5823-5829-Howe-St-Pittsburgh-PA-15232\/2080455853_zpid\/","longitude":-79.927558},{"area":2913,"street_address":"305 Miltenberger St ","baths":3.0,"price":2675,"latitude":40.436876,"beds":6.0,"type":0,"url":"https:\/\/www.zillow.com\/homedetails\/305-Miltenberger-St-Pittsburgh-PA-15219\/11273196_zpid\/","longitude":-79.981285},{"area":1560,"street_address":"1512 Denniston St ","baths":1.0,"price":1750,"latitude":40.441609,"beds":3.0,"type":0,"url":"https:\/\/www.zillow.com\/homedetails\/1512-Denniston-St-Pittsburgh-PA-15217\/2083467773_zpid\/","longitude":-79.91874},{"area":950,"street_address":"573 Alger St ","baths":1.0,"price":1300,"latitude":40.427104,"beds":3.0,"type":1,"url":"https:\/\/www.zillow.com\/homedetails\/573-Alger-St-Pittsburgh-PA-15207\/2080458790_zpid\/","longitude":-79.940125},{"area":1232,"street_address":"1319 Bower Hill Rd ","baths":1.5,"price":1495,"latitude":40.373933,"beds":3.0,"type":0,"url":"https:\/\/www.zillow.com\/homedetails\/1319-Bower-Hill-Rd-Pittsburgh-PA-15243\/11360237_zpid\/","longitude":-80.073965},{"area":900,"street_address":"5858 Beacon St # 1\/2","baths":1.5,"price":2050,"latitude":40.434733,"beds":3.0,"type":1,"url":"https:\/\/www.zillow.com\/homedetails\/5858-Beacon-St-1-2-Pittsburgh-PA-15217\/2080460610_zpid\/","longitude":-79.920531},{"area":900,"street_address":"2152 Wightman St ","baths":1.0,"price":2050,"latitude":40.431093,"beds":3.0,"type":2,"url":"https:\/\/www.zillow.com\/homedetails\/2152-Wightman-St-Pittsburgh-PA-15217\/2093508449_zpid\/","longitude":-79.927665},{"area":1411,"street_address":"1041 Mirror St ","baths":2.0,"price":2100,"latitude":40.426383,"beds":3.0,"type":0,"url":"https:\/\/www.zillow.com\/homedetails\/1041-Mirror-St-Pittsburgh-PA-15217\/11635695_zpid\/","longitude":-79.929384},{"area":2592,"street_address":"1202 James St ","baths":2.0,"price":2300,"latitude":40.457036,"beds":3.0,"type":0,"url":"https:\/\/www.zillow.com\/homedetails\/1202-James-St-Pittsburgh-PA-15212\/11388909_zpid\/","longitude":-80.001493},{"area":1300,"street_address":"3301 Iowa St # 3","baths":1.0,"price":1200,"latitude":40.45166,"beds":3.0,"type":1,"url":"https:\/\/www.zillow.com\/homedetails\/3301-Iowa-St-3-Pittsburgh-PA-15219\/2080468054_zpid\/","longitude":-79.957391},{"area":1200,"street_address":"76 S 24th St ","baths":2.0,"price":2150,"latitude":40.42942,"beds":3.0,"type":2,"url":"https:\/\/www.zillow.com\/homedetails\/76-S-24th-St-Pittsburgh-PA-15203\/11290838_zpid\/","longitude":-79.971018},{"area":2060,"street_address":"107 Woodland Rd ","baths":2.5,"price":2400,"latitude":40.526574,"beds":4.0,"type":0,"url":"https:\/\/www.zillow.com\/homedetails\/107-Woodland-Rd-Pittsburgh-PA-15238\/11444519_zpid\/","longitude":-79.910378},{"area":1078,"street_address":" Chesterfield Rd ","baths":2.0,"price":2600,"latitude":40.43898,"beds":5.0,"type":0,"url":"https:\/\/www.zillow.com\/homedetails\/Chesterfield-Rd-Pittsburgh-PA-15213\/2081943267_zpid\/","longitude":-79.96335},{"area":1300,"street_address":"2113-2119 Murray Ave # 3382264","baths":1.0,"price":1950,"latitude":40.433614,"beds":5.0,"type":1,"url":"https:\/\/www.zillow.com\/homedetails\/2113-2119-Murray-Ave-3382264-Pittsburgh-PA-15217\/2080477776_zpid\/","longitude":-79.922979},{"area":2037,"street_address":"215 Sweet Gum Rd ","baths":2.5,"price":2850,"latitude":40.537269,"beds":3.0,"type":2,"url":"https:\/\/www.zillow.com\/homedetails\/215-Sweet-Gum-Rd-Pittsburgh-PA-15238\/11488530_zpid\/","longitude":-79.860687},{"area":1399,"street_address":"3113 Niagara St ","baths":1.0,"price":1150,"latitude":40.433814,"beds":3.0,"type":0,"url":"https:\/\/www.zillow.com\/homedetails\/3113-Niagara-St-Pittsburgh-PA-15213\/11413444_zpid\/","longitude":-79.960759},{"area":2800,"street_address":"709 College Ave ","baths":3.5,"price":3650,"latitude":40.454696,"beds":5.0,"type":0,"url":"https:\/\/www.zillow.com\/homedetails\/709-College-Ave-Pittsburgh-PA-15232\/2080485457_zpid\/","longitude":-79.927555},{"area":null,"street_address":"6829 McPherson Blvd # 2","baths":1.0,"price":1445,"latitude":40.454596,"beds":3.0,"type":1,"url":"https:\/\/www.zillow.com\/homedetails\/6829-Mcpherson-Blvd-2-Pittsburgh-PA-15208\/2098575720_zpid\/","longitude":-79.906794},{"area":2100,"street_address":"435 N Graham St ","baths":1.0,"price":1400,"latitude":40.468446,"beds":4.0,"type":0,"url":"https:\/\/www.zillow.com\/homedetails\/435-N-Graham-St-Pittsburgh-PA-15206\/11519708_zpid\/","longitude":-79.933429},{"area":3663,"street_address":"6551 Dalzell Pl ","baths":2.5,"price":2400,"latitude":40.442034,"beds":4.0,"type":2,"url":"https:\/\/www.zillow.com\/homedetails\/6551-Dalzell-Pl-Pittsburgh-PA-15217\/11289338_zpid\/","longitude":-79.91498},{"area":null,"street_address":"1223 Bingham St # 1","baths":3.0,"price":2095,"latitude":40.42961,"beds":3.0,"type":1,"url":"https:\/\/www.zillow.com\/homedetails\/1223-Bingham-St-1-Pittsburgh-PA-15203\/2080504405_zpid\/","longitude":-79.985496},{"area":null,"street_address":"141 S 15th St # 2","baths":1.0,"price":1695,"latitude":40.426685,"beds":3.0,"type":2,"url":"https:\/\/www.zillow.com\/homedetails\/141-S-15th-St-2-Pittsburgh-PA-15203\/2080504982_zpid\/","longitude":-79.983324},{"area":2540,"street_address":"1319 Sarah St ","baths":2.0,"price":2350,"latitude":40.427781,"beds":4.0,"type":0,"url":"https:\/\/www.zillow.com\/homedetails\/1319-Sarah-St-Pittsburgh-PA-15203\/11474642_zpid\/","longitude":-79.984458},{"area":2000,"street_address":"1111 N Highland Ave # 2","baths":2.0,"price":1795,"latitude":40.474147,"beds":4.0,"type":1,"url":"https:\/\/www.zillow.com\/homedetails\/1111-N-Highland-Ave-2-Pittsburgh-PA-15206\/2080506926_zpid\/","longitude":-79.91922},{"area":1200,"street_address":"1715 Arlington Ave ","baths":2.0,"price":1150,"latitude":40.417776,"beds":3.0,"type":1,"url":"https:\/\/www.zillow.com\/homedetails\/1715-Arlington-Ave-Pittsburgh-PA-15210\/11316653_zpid\/","longitude":-79.9858},{"area":2850,"street_address":"26 Lafferty Ave ","baths":2.0,"price":1100,"latitude":40.417071,"beds":4.0,"type":0,"url":"https:\/\/www.zillow.com\/homedetails\/26-Lafferty-Ave-Pittsburgh-PA-15210\/11324319_zpid\/","longitude":-80.008924},{"area":1424,"street_address":"1825 Fox Way ","baths":2.0,"price":1800,"latitude":40.430176,"beds":3.0,"type":0,"url":"https:\/\/www.zillow.com\/homedetails\/1825-Fox-Way-Pittsburgh-PA-15203\/11290668_zpid\/","longitude":-79.979384},{"area":null,"street_address":" 48th St ","baths":1.0,"price":1300,"latitude":40.47638,"beds":3.0,"type":1,"url":"https:\/\/www.zillow.com\/homedetails\/48th-St-Pittsburgh-PA-15201\/2085265723_zpid\/","longitude":-79.9585},{"area":1344,"street_address":"813 Berwin Ave ","baths":2.0,"price":1101,"latitude":40.396039,"beds":3.0,"type":0,"url":"https:\/\/www.zillow.com\/homedetails\/813-Berwin-Ave-Pittsburgh-PA-15226\/11566922_zpid\/","longitude":-80.016383},{"area":null,"street_address":"6629 Dalzell Pl ","baths":1.0,"price":2000,"latitude":40.442196,"beds":3.0,"type":1,"url":"https:\/\/www.zillow.com\/homedetails\/6629-Dalzell-Pl-Pittsburgh-PA-15217\/2093962882_zpid\/","longitude":-79.913665},{"area":2035,"street_address":"5503 5th Ave ","baths":3.0,"price":3000,"latitude":40.449234,"beds":5.0,"type":0,"url":"https:\/\/www.zillow.com\/homedetails\/5503-5th-Ave-Pittsburgh-PA-15232\/11629068_zpid\/","longitude":-79.932404},{"area":1050,"street_address":"339 Spahr St # 2","baths":1.0,"price":1890,"latitude":40.456087,"beds":3.0,"type":1,"url":"https:\/\/www.zillow.com\/homedetails\/339-Spahr-St-2-Pittsburgh-PA-15232\/2104676648_zpid\/","longitude":-79.92745},{"area":1224,"street_address":"120 2nd St ","baths":1.0,"price":1100,"latitude":40.509084,"beds":3.0,"type":0,"url":"https:\/\/www.zillow.com\/homedetails\/120-2nd-St-Pittsburgh-PA-15225\/11367303_zpid\/","longitude":-80.125956},{"area":3500,"street_address":"5516 Howe St ","baths":3.5,"price":3500,"latitude":40.45033,"beds":4.0,"type":0,"url":"https:\/\/www.zillow.com\/homedetails\/5516-Howe-St-Pittsburgh-PA-15232\/11628764_zpid\/","longitude":-79.932474},{"area":1500,"street_address":"2028 Forbes Ave # 2","baths":2.0,"price":1500,"latitude":40.437149,"beds":3.0,"type":1,"url":"https:\/\/www.zillow.com\/homedetails\/2028-Forbes-Ave-2-Pittsburgh-PA-15219\/2080565264_zpid\/","longitude":-79.976585},{"area":1640,"street_address":"709 Eureka St ","baths":1.0,"price":1299,"latitude":40.423828,"beds":3.0,"type":0,"url":"https:\/\/www.zillow.com\/homedetails\/709-Eureka-St-Pittsburgh-PA-15210\/11474877_zpid\/","longitude":-79.99555},{"area":2000,"street_address":"718 California Ave # 2","baths":1.0,"price":995,"latitude":40.500464,"beds":5.0,"type":1,"url":"https:\/\/www.zillow.com\/homedetails\/718-California-Ave-2-Pittsburgh-PA-15202\/2088026246_zpid\/","longitude":-80.06687},{"area":1300,"street_address":"1532 Marquis Way ","baths":1.5,"price":1150,"latitude":40.457542,"beds":4.0,"type":0,"url":"https:\/\/www.zillow.com\/homedetails\/1532-Marquis-Way-Pittsburgh-PA-15212\/11376194_zpid\/","longitude":-80.017271},{"area":1343,"street_address":"7287 Lemington Ave ","baths":2.0,"price":1050,"latitude":40.467325,"beds":3.0,"type":0,"url":"https:\/\/www.zillow.com\/homedetails\/7287-Lemington-Ave-Pittsburgh-PA-15206\/11338188_zpid\/","longitude":-79.890539},{"area":null,"street_address":"703 Excelsior St Apt 2","baths":1.0,"price":1100,"latitude":40.42288,"beds":3.0,"type":1,"url":"https:\/\/www.zillow.com\/homedetails\/703-Excelsior-St-APT-2-Pittsburgh-PA-15210\/2080534200_zpid\/","longitude":-79.995703},{"area":1500,"street_address":"5309 Ellsworth Ave ","baths":2.0,"price":2900,"latitude":40.452751,"beds":3.0,"type":1,"url":"https:\/\/www.zillow.com\/homedetails\/5309-Ellsworth-Ave-Pittsburgh-PA-15232\/11525353_zpid\/","longitude":-79.937442},{"area":2016,"street_address":"5561 Pocusset St ","baths":3.0,"price":1900,"latitude":40.429654,"beds":4.0,"type":0,"url":"https:\/\/www.zillow.com\/homedetails\/5561-Pocusset-St-Pittsburgh-PA-15217\/11635288_zpid\/","longitude":-79.92805},{"area":1697,"street_address":"6340 Morrowfield Ave ","baths":2.5,"price":2500,"latitude":40.426956,"beds":4.0,"type":0,"url":"https:\/\/www.zillow.com\/homedetails\/6340-Morrowfield-Ave-Pittsburgh-PA-15217\/11635894_zpid\/","longitude":-79.921218},{"area":884,"street_address":"8 Regina St ","baths":1.0,"price":1250,"latitude":40.423058,"beds":3.0,"type":0,"url":"https:\/\/www.zillow.com\/homedetails\/8-Regina-St-Pittsburgh-PA-15203\/11315262_zpid\/","longitude":-79.985915},{"area":null,"street_address":"80 Beltzhoover Ave # 2","baths":1.0,"price":1250,"latitude":40.423003,"beds":3.0,"type":1,"url":"https:\/\/www.zillow.com\/homedetails\/80-Beltzhoover-Ave-2-Pittsburgh-PA-15210\/2085906313_zpid\/","longitude":-79.997766},{"area":1064,"street_address":"1031 E Warrington Ave ","baths":2.0,"price":1450,"latitude":40.422279,"beds":3.0,"type":0,"url":"https:\/\/www.zillow.com\/homedetails\/1031-E-Warrington-Ave-Pittsburgh-PA-15210\/11315089_zpid\/","longitude":-79.987009},{"area":1428,"street_address":"1118 E Warrington Ave ","baths":1.5,"price":1499,"latitude":40.422348,"beds":3.0,"type":0,"url":"https:\/\/www.zillow.com\/homedetails\/1118-E-Warrington-Ave-Pittsburgh-PA-15210\/11315311_zpid\/","longitude":-79.985773},{"area":1452,"street_address":"1419 W Sycamore St ","baths":1.0,"price":1155,"latitude":40.43388,"beds":3.0,"type":0,"url":"https:\/\/www.zillow.com\/homedetails\/1419-W-Sycamore-St-Pittsburgh-PA-15211\/11586113_zpid\/","longitude":-80.022463},{"area":1280,"street_address":"906 Eureka St ","baths":1.0,"price":1299,"latitude":40.423659,"beds":3.0,"type":0,"url":"https:\/\/www.zillow.com\/homedetails\/906-Eureka-St-Pittsburgh-PA-15210\/11315021_zpid\/","longitude":-79.9914},{"area":null,"street_address":"2315 Berg St ","baths":2.0,"price":1850,"latitude":40.419992,"beds":3.0,"type":0,"url":"https:\/\/www.zillow.com\/homedetails\/2315-Berg-St-South-Side-PA-15203\/2130443351_zpid\/","longitude":-79.973356},{"area":1744,"street_address":"210 Wilbert St ","baths":2.5,"price":1550,"latitude":40.427193,"beds":3.0,"type":0,"url":"https:\/\/www.zillow.com\/homedetails\/210-Wilbert-St-Pittsburgh-PA-15211\/11515970_zpid\/","longitude":-80.013603},{"area":1568,"street_address":"1008 E Warrington Ave ","baths":1.0,"price":1299,"latitude":40.421796,"beds":3.0,"type":0,"url":"https:\/\/www.zillow.com\/homedetails\/1008-E-Warrington-Ave-Pittsburgh-PA-15210\/11315135_zpid\/","longitude":-79.987908},{"area":1520,"street_address":"1316 Wightman St ","baths":2.0,"price":1600,"latitude":40.443654,"beds":3.0,"type":0,"url":"https:\/\/www.zillow.com\/homedetails\/1316-Wightman-St-Pittsburgh-PA-15217\/11629887_zpid\/","longitude":-79.928133},{"area":2900,"street_address":" Wightman St ","baths":2.0,"price":2525,"latitude":40.44715,"beds":3.0,"type":1,"url":"https:\/\/www.zillow.com\/homedetails\/Wightman-St-Pittsburgh-PA-15217\/2080571105_zpid\/","longitude":-79.93115},{"area":1152,"street_address":"710 Excelsior St ","baths":1.0,"price":1199,"latitude":40.422621,"beds":3.0,"type":0,"url":"https:\/\/www.zillow.com\/homedetails\/710-Excelsior-St-Pittsburgh-PA-15210\/11314848_zpid\/","longitude":-79.995371},{"area":1606,"street_address":"119 Fitler St ","baths":1.0,"price":950,"latitude":40.417017,"beds":3.0,"type":0,"url":"https:\/\/www.zillow.com\/homedetails\/119-Fitler-St-Pittsburgh-PA-15210\/11308677_zpid\/","longitude":-79.970288},{"area":1054,"street_address":"1511 Saint Patrick St ","baths":2.0,"price":1095,"latitude":40.421177,"beds":3.0,"type":1,"url":"https:\/\/www.zillow.com\/homedetails\/1511-Saint-Patrick-St-Pittsburgh-PA-15210\/11307449_zpid\/","longitude":-79.982471},{"area":1360,"street_address":"214 S Pacific Ave ","baths":1.5,"price":1995,"latitude":40.463466,"beds":3.0,"type":0,"url":"https:\/\/www.zillow.com\/homedetails\/214-S-Pacific-Ave-Pittsburgh-PA-15224\/11520964_zpid\/","longitude":-79.940529},{"area":1344,"street_address":"504 S Mathilda St ","baths":2.5,"price":1895,"latitude":40.459875,"beds":3.0,"type":0,"url":"https:\/\/www.zillow.com\/homedetails\/504-S-Mathilda-St-Pittsburgh-PA-15224\/11524596_zpid\/","longitude":-79.947746},{"area":1754,"street_address":" Vermont Ave ","baths":2.5,"price":1900,"latitude":40.36192,"beds":4.0,"type":0,"url":"https:\/\/www.zillow.com\/homedetails\/Vermont-Ave-Pittsburgh-PA-15234\/2080605225_zpid\/","longitude":-80.03819}]}